[
  {
    "lat": 48.9494036,
    "lng": 17.4591231,
    "name": "Víno Jan Polehňa",
    "picture": "vinopolehna720x540.jpg",
    "address": "408",
    "postalCode": "696 71 Blatnice pod Svatým Antonínkem",
    "phoneNumber": "518 322 828",
    "url": "http://www.vinopolehna.cz",
    "website": "vinopolehna.cz",
    "id": 93541
  },
  {
    "lat": 49.0703081,
    "lng": 17.392846,
    "name": "Vinařství Jakubík ",
    "picture": "vinarstvijakubik7240x540.jpg",
    "address": "Obchod: obchod@vinarstvijakubik.cz",
    "postalCode": "687 10 Zlechov",
    "phoneNumber": "+420 777 980 124 , +420 572 551 703",
    "url": "http://www.vinarstvijakubik.cz",
    "website": "vinarstvijakubik.cz",
    "id": 10008
  },
  {
    "lat": 48.9756491,
    "lng": 17.2641534,
    "name": "Zámecké vinařství Bzenec",
    "picture": "zamekbzenec720x540.jpg",
    "address": "Zámecká 1508",
    "postalCode": "696 81 Bzenec",
    "phoneNumber": "+420 518 384 123",
    "url": "https://www.zameckevinarstvi.cz",
    "website": "zameckevinarstvi.cz",
    "id": 50139
  },
  {
    "lat": 48.9741253,
    "lng": 17.2872271,
    "name": "Vinařství Kněží hora",
    "picture": "knezihora720x540.jpg",
    "address": "Pod Kněží horou 1469",
    "postalCode": "696 81 Bzenec",
    "phoneNumber": "420 608 505 549",
    "url": "http://www.vinarstviknezihora.cz",
    "website": "vinarstviknezihora.cz",
    "id": 40132
  },
  {
    "lat": 48.9745049,
    "lng": 17.2692267,
    "name": "Vinum Moravicum ",
    "picture": "vinummoravicum720x540.jpg",
    "address": "Pod St. hradem 43/15",
    "postalCode": "696 81 Bzenec",
    "phoneNumber": "737 557 040",
    "url": "http://www.vinummoravicum.cz",
    "website": "vinummoravicum.cz",
    "id": 54114
  },
  {
    "lat": 48.9759582,
    "lng": 17.2632354,
    "name": "Bzenecké rodinné vinařství ",
    "picture": "vinarstvi-bzenec720x540.jpg",
    "address": "Zámecká 17",
    "postalCode": "696 81 Bzenec",
    "phoneNumber": "604 119 984",
    "url": "http://www.vinarstvi-bzenec.cz",
    "website": "vinarstvi-bzenec.cz",
    "id": 36008
  },
  {
    "lat": 48.979214,
    "lng": 17.2595171,
    "name": "Vinařství Petr Bunža",
    "picture": "bunza720x540.jpg",
    "address": "Těmická 1559",
    "postalCode": "696 81 Bzenec",
    "phoneNumber": "420 731 731 445",
    "url": "http://www.bunza.cz",
    "website": "bunza.cz",
    "id": 53541
  },
  {
    "lat": 48.9798867,
    "lng": 17.2106051,
    "name": "Vinařství Škarecký",
    "picture": "vracovskarecky720x540.jpg",
    "address": "Sokolská 703",
    "postalCode": "696 42 Vracov",
    "phoneNumber": "420 725 456 727",
    "url": "http://www.vinarstvi-skarecky.cz",
    "website": "vinarstvi-skarecky.cz",
    "id": 96372
  },
  {
    "lat": 49.0182092,
    "lng": 17.2396863,
    "name": "Vinařství Žůrek",
    "picture": "vinozurek720x540.jpg",
    "address": "čp. 327",
    "postalCode": "696 47 Žeravice",
    "phoneNumber": "420 602 356 253",
    "url": "http://www.vinozurek.cz",
    "website": "vinozurek.cz",
    "id": 24078
  },
  {
    "lat": 48.9499234,
    "lng": 17.3823637,
    "name": "Víno Hruška",
    "picture": "vinoteka_hruska_veseli.jpg",
    "address": " Národních mučedníků 949",
    "postalCode": "698 01 Veselí nad Moravou",
    "phoneNumber": "+420 607 033 036",
    "url": "http://www.vinohruska.cz",
    "website": "vinohruska.cz",
    "id": 63012
  },
  {
    "lat": 49.0376075,
    "lng": 17.3448325,
    "name": "Penzion Vinařství Vaďura",
    "picture": "vadurapenzion720.jpg",
    "address": "Vinařská č.p. 672",
    "postalCode": "687 37 Polešovice",
    "phoneNumber": "777594105",
    "url": "http://www.vinovadura.cz",
    "website": "vinovadura.cz",
    "id": 19589
  },
  {
    "lat": 49.0853874,
    "lng": 17.3395046,
    "name": "Ráj Vína",
    "picture": "rajvina720x540.jpg",
    "address": "náměstí Svobody 883",
    "postalCode": "687 08 Buchlovice",
    "phoneNumber": "720 333 777",
    "url": "http://www.rajvina.cz",
    "website": "rajvina.cz",
    "id": 431
  },
  {
    "lat": 49.0848636,
    "lng": 17.3446497,
    "name": "Vinařství Černý",
    "picture": "cernybuchlovice720x540.jpg",
    "address": "Tyršova 649",
    "postalCode": "687 08 Buchlovice",
    "phoneNumber": "420 606 705 901",
    "url": "http://www.vinocerny.cz",
    "website": "vinocerny.cz",
    "id": 1233
  },
  {
    "lat": 49.033511,
    "lng": 17.3517835,
    "name": "Šlechtitelská stanice vinařská,",
    "picture": "slechtitelská_stanice_polesovice.jpg",
    "address": "Polešovice 634/634",
    "postalCode": "68737 Polešovice",
    "phoneNumber": "572 593 385",
    "url": "http://www.ssvpolesovice.cz/",
    "website": "http://ssvpolesovice.cz/",
    "id": 9333
  },
  {
    "lat": 49.1049627,
    "lng": 17.3991272,
    "name": "Vinný sklep u Křiváků",
    "picture": "velehradkrivak720x540.jpg",
    "address": "Zahradní 266",
    "postalCode": "Velehrad",
    "phoneNumber": "723 136 126",
    "url": "http://www.ukrivaku.cz",
    "website": "ukrivaku.cz",
    "id": 1807
  },
  {
    "lat": 49.1061544,
    "lng": 17.3950263,
    "name": "Klášterní sklepy Stojanov",
    "picture": "velehradstojanov720x540.jpg",
    "address": "Salašská 62",
    "postalCode": "687 06 Velehrad",
    "phoneNumber": "777 723 847",
    "url": "http://www.klasternisklepy.cz",
    "website": "klasternisklepy.cz",
    "id": 89882
  },
  {
    "lat": 49.0693384,
    "lng": 17.4607912,
    "name": "VINARIUS",
    "picture": "vinarius720x540.jpg",
    "address": "Šromova 136",
    "postalCode": "686 01 Uherské Hradiště",
    "phoneNumber": "Telefon: 604 162 032",
    "url": "http://www.vinarius.cz",
    "website": "vinarius.cz",
    "id": 63676
  },
  {
    "lat": 49.0238253,
    "lng": 17.6513199,
    "name": "Vinotéka u Václava",
    "picture": "brodub720x540.jpg",
    "address": "Dolní valy 654",
    "postalCode": "688 01 Uherský Brod",
    "phoneNumber": "775 542 808",
    "url": "http://www.vinoteka-ub.cz",
    "website": "vinoteka-ub.cz",
    "id": 69347
  },
  {
    "lat": 49.0220692,
    "lng": 17.6497736,
    "name": "Vinařství Juřeník & Žďárský",
    "picture": "brodjuranek720x540.jpg",
    "address": "Dolní Valy 508",
    "postalCode": "688 01 Uherský Brod",
    "phoneNumber": "420 606 663 774",
    "url": "http://www.jurenikzdarsky.cz",
    "website": "jurenikzdarsky.cz",
    "id": 15682
  },
  {
    "lat": 49.0215989,
    "lng": 17.6420052,
    "name": "Vinotéka Uherský Brod",
    "picture": "brodukapl720x540.jpg",
    "address": "Vlčnovská 2514",
    "postalCode": "688 01 Uherský Brod",
    "phoneNumber": "420 725 267 042",
    "url": "http://www.vinoteka-ukaplicky.cz/ubrod-kauflnad.html",
    "website": "vinoteka-ukaplicky.cz",
    "id": 19422
  },
  {
    "lat": 49.030983,
    "lng": 17.205907,
    "name": "Vinné sklepy Skalák",
    "picture": "skalak720x540.jpg",
    "address": "Skalka 85",
    "postalCode": "696 48 Ježov",
    "phoneNumber": "420 778 740 001",
    "url": "http://www.sklepskalak.cz",
    "website": "sklepskalak.cz",
    "id": 13503
  },
  {
    "lat": 48.9326443,
    "lng": 17.5400711,
    "name": "Vinařská Společnost Blatnička",
    "picture": "vinspol540x720.jpg",
    "address": "Blatnička 44",
    "postalCode": "696 71 Blatnička",
    "phoneNumber": "518 331 530",
    "url": "http://www.vinspol.cz",
    "website": "vinspol.cz",
    "id": 59040
  },
  {
    "lat": 48.8939881,
    "lng": 17.3050065,
    "name": "Vitis",
    "picture": "vitis720x540.jpg",
    "address": "U Podjezdu 802",
    "postalCode": "696 62 Strážnice",
    "phoneNumber": "420 777 701 046",
    "url": "http://www.vino-vitis.cz",
    "website": "vino-vitis.cz",
    "id": 52480
  },
  {
    "lat": 49.035102,
    "lng": 17.152734,
    "name": "Vinný sklep Krýsa",
    "picture": "kosteleckrysa720x540.jpg",
    "address": "Kostelec u Kyjova 343",
    "postalCode": "696 51  Kostelec",
    "phoneNumber": "420 733 763 689",
    "url": "http://www.vesklepe.cz",
    "website": "vesklepe.cz",
    "id": 87109
  },
  {
    "lat": 49.0091817,
    "lng": 17.1275214,
    "name": "Vinotéka/Lidová jizba",
    "picture": "vinoteka-kyjov720x540.jpg",
    "address": "tř. Palackého 205/6",
    "postalCode": "697 01 Kyjov",
    "phoneNumber": "518 307 732",
    "url": "http://www.vinoteka-kyjov.cz",
    "website": "vinoteka-kyjov.cz",
    "id": 28867
  },
  {
    "lat": 48.8977887,
    "lng": 17.3084435,
    "name": "Slovácká vinotéka",
    "picture": "slovacka_vinoteka720x540.jpg",
    "address": "Masarykova 319",
    "postalCode": "696 62 Strážnice",
    "phoneNumber": "721 244 934",
    "url": "http://www.vinarstvidobcakovi.cz/",
    "website": "vinarstvidobcakovi.cz",
    "id": 7891
  },
  {
    "lat": 49.010078,
    "lng": 17.122386,
    "name": "Slovácká galerie vín",
    "picture": "slovacka_galerievin720x540.jpg",
    "address": "Masarykovo náměstí 30/1",
    "postalCode": "697 01 Kyjov",
    "phoneNumber": "420 518 307 733",
    "url": "http://www.slovackagalerievin.cz",
    "website": "slovackagalerievin.cz",
    "id": 81959
  },
  {
    "lat": 49.0094731,
    "lng": 17.1267897,
    "name": "Vinotéka Na Špici",
    "picture": "kyjovnaspici720x540.jpg",
    "address": "Masarykovo nám. 63/43",
    "postalCode": "697 01 Kyjov",
    "phoneNumber": "601 380 461",
    "url": "http://www.vinotekabucovice.cz",
    "website": "vinotekabucovice.cz",
    "id": 86083
  },
  {
    "lat": 49.0059481,
    "lng": 17.1320581,
    "name": "Vinný sklípek Kyjov",
    "picture": "vinn-sklep-kyjov720x540.jpg",
    "address": "Palackého 205/6 ",
    "postalCode": "697 01 Kyjov",
    "phoneNumber": "775 700 107",
    "url": "http://www.sklipek-kyjov.cz",
    "website": "sklipek-kyjov.cz",
    "id": 13123
  },
  {
    "lat": 48.8979568,
    "lng": 17.3167792,
    "name": "Víno Botur",
    "picture": "straznicebotur720x540.jpg",
    "address": "Nádražní 1516",
    "postalCode": "696 62 Strážnice",
    "phoneNumber": "728 213 216",
    "url": "http://www.vinobotur.cz",
    "website": "vinobotur.cz",
    "id": 28966
  },
  {
    "lat": 48.8985731,
    "lng": 17.3272138,
    "name": "Podniková vinotéka Strážnice",
    "picture": "straznice_zerotin720x540.jpg",
    "address": "Veselská 1323",
    "postalCode": "696 62 Strážnice",
    "phoneNumber": "725 309 805",
    "url": "http://www.vinarstvi-zerotin.cz/prodejna-vina-straznice",
    "website": "vinarstvi-zerotin.cz",
    "id": 38227
  },
  {
    "lat": 48.8983882,
    "lng": 17.3149951,
    "name": "Vinařství Veverka",
    "picture": "strazniceveverka720x540.jpg",
    "address": "Vinohradská 45/9",
    "postalCode": "696 62 Strážnice",
    "phoneNumber": "607 855 751",
    "url": "http://www.vino-veverka.cz",
    "website": "vino-veverka.cz",
    "id": 69379
  },
  {
    "lat": 48.8777453,
    "lng": 17.2679859,
    "name": "Miroslav Svoboda",
    "picture": "straznicesvoboda720x540.jpg",
    "address": "Petrov 411",
    "postalCode": "696 65 Petrov",
    "phoneNumber": "723 738 978",
    "url": "http://www.vinarstvisvoboda.cz",
    "website": "vinarstvisvoboda.cz",
    "id": 6795
  },
  {
    "lat": 48.877932,
    "lng": 17.271838,
    "name": "Vinařství Tomanovský",
    "picture": "petrovtomanovsky720x540.jpg",
    "address": "Petrov 465",
    "postalCode": "696 65 Petrov",
    "phoneNumber": "602 51 71 91",
    "url": "http://www.tomanovsky.cz",
    "website": "tomanovsky.cz",
    "id": 14042
  },
  {
    "lat": 48.8514362,
    "lng": 17.1301768,
    "name": "Vinotéka Sýkora",
    "picture": "hodoninsykora720x540.jpg",
    "address": "Měšťanská 929",
    "postalCode": "695 01 Hodonín",
    "phoneNumber": "702 124 680",
    "url": "http://www.vinosykora.cz",
    "website": "vinosykora.cz",
    "id": 5079
  },
  {
    "lat": 48.8549784,
    "lng": 17.1248813,
    "name": "Hodonín WinePoint",
    "picture": "hodonin-winepoint720x540.jpg",
    "address": "Národní třída 50",
    "postalCode": "695 01 Hodonín",
    "phoneNumber": "420 777 977 126",
    "url": "http://www.vinospolmutenice.cz/vinospol/nase-vinoteky/hodonin-winepoint",
    "website": "vinospolmutenice.cz",
    "id": 81730
  },
  {
    "lat": 48.8515536,
    "lng": 17.1325056,
    "name": "Vinotéka Hodonín",
    "picture": "hodoninzerotin720x540.jpg",
    "address": "Výstavní 1072/1 ",
    "postalCode": "695 01 Hodonín",
    "phoneNumber": "420 727 984 055",
    "url": "http://www.vinoteka-hodonin.cz",
    "website": "vinoteka-hodonin.cz",
    "id": 48860
  },
  {
    "lat": 48.855295,
    "lng": 17.1376741,
    "name": "Vinárna U Houslí",
    "picture": "hodoninuhousli720x540.jpg",
    "address": "Jižní 4008",
    "postalCode": "695 01 Hodonín",
    "phoneNumber": "420 602 831 002",
    "url": "http://www.vinarnauhousli.cz",
    "website": "vinarnauhousli.cz",
    "id": 21883
  },
  {
    "lat": 48.8624037,
    "lng": 17.0210874,
    "name": "Vinárna U Konšelů",
    "picture": "bojanovice720x540.jpg",
    "address": "Hlavní 419",
    "postalCode": "696 17 Dolní Bojanovice",
    "phoneNumber": "420 606 951 225",
    "url": "http://www.ukonselu.unas.cz",
    "website": "ukonselu.unas.cz",
    "id": 85563
  },
  {
    "lat": 48.874496,
    "lng": 16.989992,
    "name": "Krásná hora",
    "picture": "podvorovkrasnahora720x540.jpg",
    "address": "Starý Poddvorov 360",
    "postalCode": "696 16 Starý Poddvorov",
    "phoneNumber": "607 234 048",
    "url": "http://www.krasnahora.com",
    "website": "krasnahora.com",
    "id": 65665
  },
  {
    "lat": 48.8812249,
    "lng": 16.9877784,
    "name": "Vinný sklep Na Vyšicku",
    "picture": "poddvorovsvoboda720x540.jpg",
    "address": "Starý Poddvorov 301",
    "postalCode": "696 16  Starý Poddvorov",
    "phoneNumber": "420 602 931 529",
    "url": "http://www.vinny-sklep.com",
    "website": "vinny-sklep.com",
    "id": 10026
  },
  {
    "lat": 48.8344604,
    "lng": 16.9352493,
    "name": "Vinařství Maděřič",
    "picture": "zizkovmaderic720x540.jpg",
    "address": "Moravský Žižkov 90",
    "postalCode": "691 01 Moravský Žižkov",
    "phoneNumber": "420 605 284 266",
    "url": "http://www.vinarstvimaderic.cz",
    "website": "vinarstvimaderic.cz",
    "id": 13705
  },
  {
    "lat": 48.8263982,
    "lng": 16.9842166,
    "name": "Vinařství Melchrt",
    "picture": "prusankymelchrt720x540.jpg",
    "address": "Příční 693",
    "postalCode": "696 21 Prušánky",
    "phoneNumber": "775 952 030",
    "url": "http://www.vinarstvimelchrt.cz",
    "website": "vinarstvimelchrt.cz",
    "id": 41342
  },
  {
    "lat": 48.8451488,
    "lng": 16.9809312,
    "name": "Vinařství U sv. Kříže",
    "picture": "nechorykriz720x540.jpg",
    "address": "Zahradní 675",
    "postalCode": "696 21 Prušánky",
    "phoneNumber": "420 603 260 148",
    "url": "http://www.vinarstviusvkrize.cz",
    "website": "vinarstviusvkrize.cz",
    "id": 7207
  },
  {
    "lat": 48.843096,
    "lng": 16.987411,
    "name": "Vinařství Nechory",
    "picture": "nechoryvin720x540.jpg",
    "address": "Nechory 218",
    "postalCode": "696 21 Prušánky",
    "phoneNumber": "420 728 376 839",
    "url": "http://www.vinarstvinechory.cz",
    "website": "vinarstvinechory.cz",
    "id": 87529
  },
  {
    "lat": 48.839486,
    "lng": 16.9861861,
    "name": "Vinařství Milan Vašíček",
    "picture": "vasiceknechory720x540.jpg",
    "address": "Nechory 345",
    "postalCode": "696 21 Prušánky",
    "phoneNumber": "420 776 11 66 93",
    "url": "http://www.vinovasicek.cz",
    "website": "vinovasicek.cz",
    "id": 97637
  },
  {
    "lat": 48.917603,
    "lng": 17.1002927,
    "name": "Vinařský dům KOBERN",
    "picture": "dubnanykopecek720x540.jpg",
    "address": "Hodonínská 306",
    "postalCode": "696 03 Dubňany",
    "phoneNumber": "518 364 145",
    "url": "http://www.vinarskydum.cz",
    "website": "vinarskydum.cz",
    "id": 22273
  },
  {
    "lat": 48.9149185,
    "lng": 17.0878896,
    "name": "Vinařství Hlavinka",
    "picture": "dubnanyhlavinka720x540.jpg",
    "address": "U studánky 1238",
    "postalCode": "696 03 Dubňany",
    "phoneNumber": "420 739 040 964",
    "url": "http://www.vinarstvihlavinka.cz",
    "website": "vinarstvihlavinka.cz",
    "id": 4085
  },
  {
    "lat": 48.9464556,
    "lng": 17.1161222,
    "name": "Vinný sklep U Spěváků",
    "picture": "dubnanymilotice720x540.jpg",
    "address": "Šidleny - číslo sklepu 202",
    "postalCode": "696 05 Milotice",
    "phoneNumber": "777 009 677",
    "url": "http://www.uspevaku.cz",
    "website": "uspevaku.cz",
    "id": 47595
  },
  {
    "lat": 48.9236061,
    "lng": 17.1113777,
    "name": "Vinný sklep U Chytilů",
    "picture": "miloticechytil720x540.jpg",
    "address": "Šidleny 191",
    "postalCode": "696 05 Milotice",
    "phoneNumber": "602 523 87",
    "url": "http://www.vinnysklepuchytilu.cz",
    "website": "vinnysklepuchytilu.cz",
    "id": 10946
  },
  {
    "lat": 48.9563537,
    "lng": 17.1395746,
    "name": "Vinařství Krist",
    "picture": "miloticekrist720x540.jpg",
    "address": "Zámecká 123",
    "postalCode": "696 05 Milotice",
    "phoneNumber": "608 646 606",
    "url": "http://www.vinarstvikrist.cz",
    "website": "vinarstvikrist.cz",
    "id": 66225
  },
  {
    "lat": 48.945579,
    "lng": 17.168467,
    "name": "Vinařství Broda",
    "picture": "vacenovicebroda720x540.jpg",
    "address": "Žlébky",
    "postalCode": "696 06 Vacenovice",
    "phoneNumber": "775 383 056",
    "url": "http://www.vinarstvibroda.cz",
    "website": "vinarstvibroda.cz",
    "id": 2025
  },
  {
    "lat": 48.8785203,
    "lng": 17.1860317,
    "name": "Vinný sklep Kovárna",
    "picture": "rohateckovarna720x540.jpg",
    "address": "Baráky 125/1",
    "postalCode": "696 01 Rohatec",
    "phoneNumber": "721 732 563",
    "url": "http://www.vinnysklep.penzion.com/8232/vinny-sklep",
    "website": "vinnysklep.penzion.com",
    "id": 48493
  },
  {
    "lat": 48.8632232,
    "lng": 17.2584437,
    "name": "Vinařství Toman",
    "picture": "sudomericetoman720x540.jpg",
    "address": "Starý potok 16",
    "postalCode": "696 66 Sudoměřice",
    "phoneNumber": "605 298 052",
    "url": "http://www.vinotoman.cz",
    "website": "vinotoman.cz",
    "id": 65824
  },
  {
    "lat": 48.8303401,
    "lng": 16.9662014,
    "name": "Morávia Víno",
    "picture": "prusankyvinomorava720x540.jpg",
    "address": "Prušánky 777",
    "postalCode": "696 21 Prušánky",
    "phoneNumber": "602 518 145",
    "url": "http://www.vinomorava.net",
    "website": "vinomorava.net",
    "id": 58111
  },
  {
    "lat": 48.8011644,
    "lng": 17.0178116,
    "name": "Rodinné vinařství Košut",
    "picture": "prusankykosut720x540.jpg",
    "address": "Hlavní 89",
    "postalCode": "691 55 Moravská Nová Ves",
    "phoneNumber": "728 676 326",
    "url": "http://www.kosut.net",
    "website": "kosut.net",
    "id": 47082
  },
  {
    "lat": 48.9552978,
    "lng": 16.9654924,
    "name": "Vinařství na Čejči",
    "picture": "cejcsklep720x540.jpg",
    "address": "Pod bůdama 78,, Čejč",
    "postalCode": "696 14 Čejč",
    "phoneNumber": "605 878 855",
    "url": "http://www.sklep-cejc.cz",
    "website": "sklep-cejc.cz",
    "id": 45397
  },
  {
    "lat": 48.952295,
    "lng": 16.969596,
    "name": "Vinný sklep U Hroznu",
    "picture": "cejcuhroznu.720x540.jpg",
    "address": "Areál vinných sklepů Pod Búdama",
    "postalCode": "696 14 Čejč",
    "phoneNumber": "724 744 118",
    "url": "http://www.vinny-sklipek.cz/",
    "website": "vinny-sklipek.cz",
    "id": 14949
  },
  {
    "lat": 48.9505419,
    "lng": 16.9689499,
    "name": "Rodinné vinařství Melkusovi",
    "picture": "cejcmelk720x540.jpg",
    "address": "Čejč 14",
    "postalCode": "696 14 Čejč",
    "phoneNumber": "420 606 267 722",
    "url": "http://www.vinarstvimelkusovi.cz",
    "website": "vinarstvimelkusovi.cz",
    "id": 64602
  },
  {
    "lat": 48.9530015,
    "lng": 16.9480886,
    "name": "Penzion a sklep u Tomčalů",
    "picture": "cejcutomca720x540.jpg",
    "address": "Čejč 398",
    "postalCode": "696 14 Čejč",
    "phoneNumber": "731 461 555",
    "url": "http://www.penziontomcala.cz",
    "website": "penziontomcala.cz",
    "id": 89479
  },
  {
    "lat": 48.9427393,
    "lng": 16.9663488,
    "name": "Horákova farma",
    "picture": "cejchorakova720x540.jpg",
    "address": " Čejč 1",
    "postalCode": "696 14 Čejč",
    "phoneNumber": "420 518 361 201",
    "url": "http://www.cshorak.cz",
    "website": "cshorak.cz",
    "id": 2130
  },
  {
    "lat": 48.95241,
    "lng": 16.9412471,
    "name": "Vinařství Esterka",
    "picture": "terezinesterka720x540.jpg",
    "address": "Pod sklepy 164",
    "postalCode": "696 14 Terezín",
    "phoneNumber": "420 602 778 155",
    "url": "http://www.vinarstvi-esterka.cz",
    "website": "vinarstvi-esterka.cz",
    "id": 94622
  },
  {
    "lat": 48.9709337,
    "lng": 17.084579,
    "name": "Vinařství U Šťastných",
    "picture": "kyjovustastnych720x540.jpg",
    "address": "Vyhnálov 673/7",
    "postalCode": "696 04 Svatobořice-Mistřín",
    "phoneNumber": "728 921 227",
    "url": "http://www.ustastnych.cz",
    "website": "ustastnych.cz",
    "id": 98687
  },
  {
    "lat": 48.9868795,
    "lng": 17.1001347,
    "name": "Vinařství DUFEK",
    "picture": "kyjovvinarstvi-dufek720x540.jpg",
    "address": "Pod Sokolovnou 1185/17",
    "postalCode": "696 04 Svatobořice-Mistřín",
    "phoneNumber": "420 721 254 983",
    "url": "http://www.vinarstvi-dufek.cz",
    "website": "vinarstvi-dufek.cz",
    "id": 44416
  },
  {
    "lat": 49.004269,
    "lng": 17.163453,
    "name": "Vinný sklep u Štipčáků",
    "picture": "kyjovstipcak720x540.jpg",
    "address": "Vlkošské búdy",
    "postalCode": "696 41 Vlkoš",
    "phoneNumber": "420 776 062 459",
    "url": "http://www.vinnysklepsubytovanim.cz",
    "website": "vinnysklepsubytovanim.cz",
    "id": 50704
  },
  {
    "lat": 49.013564,
    "lng": 17.192892,
    "name": "Vinařství Štěpán Maňák",
    "picture": "zadovicemanak720x540.jpg",
    "address": "Žádovice 276",
    "postalCode": "696 49 Žádovice",
    "phoneNumber": "420 603 275 122",
    "url": "http://www.vinarstvi-manak.cz",
    "website": "vinarstvi-manak.cz",
    "id": 86330
  },
  {
    "lat": 48.9595852,
    "lng": 17.0330994,
    "name": "Vinařství Nešporovi",
    "picture": "sardice720x540.jpg",
    "address": "Hlavní 429",
    "postalCode": "696 13 Šardice",
    "phoneNumber": "603 903 789",
    "url": "http://www.vinarstvinesporovi.cz",
    "website": "vinarstvinesporovi.cz",
    "id": 7398
  },
  {
    "lat": 48.9612226,
    "lng": 17.0374449,
    "name": "Vinařství Foretník",
    "picture": "foretnik720x540.jpg",
    "address": "Hlavní 303",
    "postalCode": "696 13 Šardice",
    "phoneNumber": "602 146 935",
    "url": "http://www.vinoforetnik.cz",
    "website": "vinoforetnik.cz",
    "id": 60118
  },
  {
    "lat": 48.906905,
    "lng": 17.035018,
    "name": "Vinospol",
    "picture": "vinospol720x540.jpg",
    "address": "Údolní 1076",
    "postalCode": "696 11 Mutěnice",
    "phoneNumber": "602 100 107",
    "url": "http://www.vinospolmutenice.cz",
    "website": "vinospolmutenice.cz",
    "id": 14102
  },
  {
    "lat": 48.906074,
    "lng": 17.0376939,
    "name": "Vinařství Mutěnice,",
    "picture": "mutenice720x540.jpg",
    "address": "Údolní 1174",
    "postalCode": "696 11 Mutěnice",
    "phoneNumber": "723 185 314",
    "url": "http://www.vinarstvimutenice.cz",
    "website": "vinarstvimutenice.cz",
    "id": 74846
  },
  {
    "lat": 48.9132388,
    "lng": 17.0194476,
    "name": "Vinařství Turzík",
    "picture": "turzik720x540.jpg",
    "address": "Vinařská 424",
    "postalCode": "696 11 Mutěnice",
    "phoneNumber": "776 558 457",
    "url": "http://www.turzik.cz",
    "website": "turzik.cz",
    "id": 61240
  },
  {
    "lat": 48.9111894,
    "lng": 17.0309425,
    "name": "Modré Vinařství",
    "picture": "modre720x540.jpg",
    "address": "Šlechtitelská",
    "postalCode": "696 11 Mutěnice",
    "phoneNumber": "776 560 134",
    "url": "http://www.modrevinarstvi.cz",
    "website": "modrevinarstvi.cz",
    "id": 26157
  },
  {
    "lat": 48.9140553,
    "lng": 17.0255698,
    "name": "Vinný sklep Josef Vítek",
    "picture": "vitekmutenice720x540.jpg",
    "address": "Nedělní 1029",
    "postalCode": "696 11 Mutěnice",
    "phoneNumber": "420 723 936 594",
    "url": "http://www.vinarstvi-mutenice.cz",
    "website": "vinarstvi-mutenice.cz",
    "id": 71262
  },
  {
    "lat": 48.913482,
    "lng": 17.0264,
    "name": "Vinařství a vinný sklep Zimolka",
    "picture": "zimolka720x540.jpg",
    "address": "U Kapličky 15677",
    "postalCode": "696 11 Mutěnice",
    "phoneNumber": "777 736 600",
    "url": "http://www.vinozimolka.cz",
    "website": "vinozimolka.cz",
    "id": 18615
  },
  {
    "lat": 48.9147237,
    "lng": 17.0247197,
    "name": "Vinařství  Vrba",
    "picture": "mutenicevrba720x540.jpg",
    "address": "460, Horská",
    "postalCode": "696 11 Mutěnice",
    "phoneNumber": "420 776 287 868",
    "url": "http://www.vinarstvivrba.cz",
    "website": "vinarstvivrba.cz",
    "id": 97200
  },
  {
    "lat": 48.9132505,
    "lng": 17.0245737,
    "name": "Sklep u Štěpánků",
    "picture": "muteniceustepanku720x540.jpg",
    "address": "Rovná 319 (lokalita-Bůdy)",
    "postalCode": "696 11 Mutěnice",
    "phoneNumber": "420 723 426 729",
    "url": "http://www.sklepustepanku.cz",
    "website": "sklepustepanku.cz",
    "id": 50099
  },
  {
    "lat": 48.9141376,
    "lng": 17.0285726,
    "name": "Vinný sklep Zlatá morava",
    "picture": "zlatysklep720x540.jpg",
    "website": "",
    "address": "Uzavřená 75",
    "postalCode": "696 11 Mutěnice",
    "phoneNumber": "606 913 717",
    "url": "http://www.zlata-morava.cz",
    "website": "zlata-morava.cz",
    "id": 11271
  },
  {
    "lat": 48.9072937,
    "lng": 17.0373334,
    "name": "Vinařství Štěpánek",
    "picture": "mutenicestepanek720x540.jpg",
    "address": " Zahradní 773",
    "postalCode": "696 11 Mutěnice",
    "phoneNumber": "420 608 963 846",
    "url": "http://www.vinarstvistepanek.eu",
    "website": "vinarstvistepanek.eu",
    "id": 31224
  },
  {
    "lat": 48.914382,
    "lng": 17.0299591,
    "name": "Dlúhé Grefty",
    "picture": "dluhegrefty720x540.jpg",
    "address": "Uzavřená",
    "postalCode": "696 11 Mutěnice",
    "phoneNumber": "420 773 527 687",
    "url": "http://www.dluhegrefty.cz",
    "website": "dluhegrefty.cz",
    "id": 48187
  },
  {
    "lat": 48.9158721,
    "lng": 17.0211831,
    "name": "Vinařství Petr Bíza & Sklep u Zdeny",
    "picture": "mutenicebiza720x540.jpg",
    "address": "Pod Búdama",
    "postalCode": "696 11 Mutěnice",
    "phoneNumber": "602 715 942",
    "url": "http://www.sklepuzdeny.cz",
    "website": "sklepuzdeny.cz",
    "id": 86343
  },
  {
    "lat": 48.9030254,
    "lng": 17.3175502,
    "name": "Zámecké sklepy Strážnice",
    "picture": "straznicesklp720x540.jpg",
    "address": "Boženy Hrejsové 1201",
    "postalCode": "696 62 Strážnice",
    "phoneNumber": "602 670 051",
    "url": "http://www.zameckesklepy.cz",
    "website": "zameckesklepy.cz ",
    "id": 99545
  },
  {
    "lat": 49.0516217,
    "lng": 17.4822374,
    "name": "Vinařství Medek",
    "picture": "hradmedek720x540.jpg",
    "address": "Na Kopci 68",
    "postalCode": "686 01 Uherské Hradiště",
    "phoneNumber": "420 773 580 566",
    "url": "http://www.vinarstvimedek.cz",
    "website": "vinarstvimedek.cz",
    "id": 8461
  },
  {
    "lat": 49.067575,
    "lng": 17.459196,
    "name": "Galerie slováckých vín",
    "picture": "hradgalerieslov720x540.jpg",
    "address": "Masarykovo nám. 21",
    "postalCode": "686 01 Uherské Hradiště",
    "phoneNumber": "420 572 541 884",
    "url": "http://www.jezuitske-sklepy.cz",
    "website": "jezuitske-sklepy.cz",
    "id": 18775
  },
  {
    "lat": 49.0713576,
    "lng": 17.4591579,
    "name": "VÍNO HRUŠKA - Vinotéka a vinný bar",
    "picture": "hradhruska720x540.jpg",
    "address": "Vodní 110",
    "postalCode": "686 01 Uherské Hradiště",
    "phoneNumber": "420 775 785 061",
    "url": "http://www.vinokterechutna.cz/kontakty/detail/14",
    "website": "vinokterechutna.cz",
    "id": 82904
  },
  {
    "lat": 49.0698742,
    "lng": 17.4591884,
    "name": "Slovácká vinotéka",
    "picture": "hradslovackateka720x540.jpg",
    "address": "Mariánské náměstí 44",
    "postalCode": "686 01 Uherské Hradiště",
    "phoneNumber": "420 774 087 654",
    "url": "http://www.rajvina.cz/vinoteky",
    "website": "rajvina.cz",
    "id": 49745
  },
  {
    "lat": 49.0701595,
    "lng": 17.470429,
    "name": "Malokarpatská vinotéka",
    "picture": "hradkarp720x540.jpg",
    "address": "Verbířská 1286",
    "postalCode": "686 01 Uherské Hradiště",
    "phoneNumber": "420 731 912 082",
    "url": "http://www.vino-mkv.sk/#Uhersk%C3%A9%20Hradi%C5%A1t%C4%9B",
    "website": "vino-mkv.sk",
    "id": 91537
  },
  {
    "lat": 48.9510829,
    "lng": 17.4611767,
    "name": "Vinařství Vyskočil",
    "picture": "blatnicevyskocil720x540.jpg",
    "address": "Blatnice 775",
    "postalCode": "696 71 Blatnice pod Svatým Antonínkem",
    "phoneNumber": "608 861 146",
    "url": "http://www.vinovyskocil.cz",
    "website": "vinovyskocil.cz",
    "id": 8650
  },
  {
    "lat": 48.9425892,
    "lng": 17.4624131,
    "name": "Víno Bílek",
    "picture": "blatnicebilek720x540.jpg",
    "address": "č.p. 692",
    "postalCode": "696 71 Blatnice pod Svatým Antonínkem",
    "phoneNumber": "604 948 415",
    "url": "http://www.vinobilek.cz",
    "website": "vinobilek.cz",
    "id": 21465
  },
  {
    "lat": 48.9417553,
    "lng": 17.4665451,
    "name": "Vinařský dům PETRATUR",
    "picture": "blatnicepetratour720x540.jpg",
    "address": "Blatnice 661",
    "postalCode": "696 71 Blatnice pod Svatým Antonínkem",
    "phoneNumber": "420 724 286 367",
    "url": "http://www.vinarstvipetratur.cz",
    "website": "vinarstvipetratur.cz",
    "id": 85395
  },
  {
    "lat": 48.9460653,
    "lng": 17.4590787,
    "name": "Vinařství Pavel Hruška",
    "picture": "blatnicehruska720x540.jpg",
    "address": "č.p. 705",
    "postalCode": "696 71 Blatnice pod Svatým Antonínkem",
    "phoneNumber": "420 777 706 872",
    "url": "http://www.vinarstvi-blatnice.cz",
    "website": "vinarstvi-blatnice.cz",
    "id": 99309
  },
  {
    "lat": 48.9530257,
    "lng": 17.4562807,
    "name": "VÍNO BLATEL",
    "picture": "blatniceblatel720x540.jpg",
    "address": "Blatnice 855",
    "postalCode": "696 71 Blatnice pod Svatým Antonínkem",
    "phoneNumber": "420 775 707 224",
    "url": "http://www.vinoblatel.cz",
    "website": "vinoblatel.cz",
    "id": 83042
  },
  {
    "lat": 48.946948,
    "lng": 17.4676391,
    "name": "Mladé Vinařství",
    "picture": "blatnicemlade720x540.jpg",
    "address": "Blatnice 104",
    "postalCode": "696 71 Blatnice pod Svatým Antonínkem",
    "phoneNumber": "420 731 826 999",
    "url": "http://www.mladevinarstvi.cz",
    "website": "mladevinarstvi.cz",
    "id": 56529
  },
  {
    "lat": 48.9489512,
    "lng": 17.4666636,
    "name": "Vinařství rodiny Cíchovy",
    "picture": "blatnicecicha720x540.jpg",
    "address": "Blatnice 490",
    "postalCode": "Blatnice pod Svatým Antonínkem",
    "phoneNumber": "608 010 566",
    "url": "http://www.cicha.cz",
    "website": "cicha.cz",
    "id": 79232
  },
  {
    "lat": 48.9372766,
    "lng": 17.5290739,
    "name": "Sklep Antonín Mičulka",
    "picture": "blatnickamiculka720x540.jpg",
    "address": "Blatnička 188",
    "postalCode": "696 71 Blatnička",
    "phoneNumber": "420 608 782 228",
    "url": "http://www.sklepmiculka.cz",
    "website": "sklepmiculka.cz",
    "id": 88274
  },
  {
    "lat": 48.9348583,
    "lng": 17.527417,
    "name": "Vinotéka VÍNO HRUŠKA",
    "picture": "blatnickahruska720x540.jpg",
    "address": "Blatnička č. 143",
    "postalCode": "696 71 Blatnička",
    "phoneNumber": "420 776 682 147",
    "url": "http://www.vinokterechutna.cz",
    "website": "vinokterechutna.cz",
    "id": 48438
  },
  {
    "lat": 48.935394,
    "lng": 17.5242103,
    "name": "Vinný sklep Minařík",
    "picture": "blatnickaminarik720x540.jpg",
    "address": "Blatnička 41",
    "postalCode": "696 71 Blatnička",
    "phoneNumber": "774 331 619",
    "url": "http://www.vino-minarik.cz",
    "website": "vino-minarik.cz",
    "id": 86573
  },
  {
    "lat": 49.0853874,
    "lng": 17.3395046,
    "name": "Ráj Vína - Buchlovice",
    "picture": "buchlovice-vinot720x540.jpg",
    "address": "Náměstí Svobody 883",
    "postalCode": "Buchlovice 687 08",
    "phoneNumber": "420 606 353 515",
    "url": "http://www.rajvina.cz/raj-vina-buchlovice",
    "website": "rajvina.cz",
    "id": 23284
  },
  {
    "lat": 49.068053,
    "lng": 17.460723,
    "name": "Liquormania",
    "picture": "liqueromania720x540.jpg",
    "address": "Masarykovo náměstí 17",
    "postalCode": "686 01 Uherské Hradiště",
    "phoneNumber": "420 725 709 873",
    "url": "http://www.liquormania.cz",
    "website": "liquormania.cz",
    "id": 20247
  },
  {
    "lat": 49.0058247,
    "lng": 17.4351707,
    "name": "Vinotéka U svatého Vavřinca",
    "picture": "uvavrinca720x540.jpg",
    "address": "Dědina 40",
    "postalCode": "687 22 Ostrožská Nová Ves",
    "phoneNumber": "731 507 231",
    "url": "http://www.karbula.cz/cz/55-vinoteky/56-ostrozska-nova-ves.html",
    "website": "karbula.cz",
    "id": 57742
  },
  {
    "lat": 48.7660058,
    "lng": 16.8907839,
    "name": "Vinotéka Moravský sommelier",
    "picture": "breclavsomelier720x540.jpg",
    "address": "Kpt. Jaroše 3 ,areál bývalých kasáren",
    "postalCode": "690 02 Břeclav",
    "phoneNumber": "420 606 202 595",
    "url": "http://www.moravskysommelier.cz",
    "website": "moravskysommelier.cz",
    "id": 37757
  },
  {
    "lat": 48.7637234,
    "lng": 16.8871468,
    "name": "Vinotéka Brumovín",
    "picture": "breclavbrumovin720x540.jpg",
    "address": "Nár. hrdinů 607/22",
    "postalCode": "690 02 Břeclav",
    "phoneNumber": "777 756 115",
    "url": "http://www.brumovin.cz",
    "website": "brumovin.cz",
    "id": 14715
  },
  {
    "lat": 48.7747918,
    "lng": 16.8875811,
    "name": "Vinařství Josef Mráz",
    "picture": "breclavmraz720x540.jpg",
    "address": "Gen. Šimka 67",
    "postalCode": "690 02 Břeclav",
    "phoneNumber": "777 264 587",
    "url": "http://www.vinarstvimraz.cz",
    "website": "vinarstvimraz.cz",
    "id": 54421
  },
  {
    "lat": 48.7604148,
    "lng": 16.8766872,
    "name": "Zámecká vinárna ROTUNDA",
    "picture": "breclavrotunda720x540.jpg",
    "address": "Zámecké nám. 5/1",
    "postalCode": "690 02 Břeclav",
    "phoneNumber": "420 608 327 770",
    "url": "http://www.rotunda.cz",
    "website": "rotunda.cz",
    "id": 10994
  },
  {
    "lat": 48.7996487,
    "lng": 17.0166168,
    "name": "Vinařství Tomanovi",
    "picture": "morvestoman720x540.jpg",
    "address": "Polní 31",
    "postalCode": "691 55 Moravská Nová Ves",
    "phoneNumber": "420 777 561 535",
    "url": "http://www.vinarstvi-tomanovi.cz",
    "website": "vinarstvi-tomanovi.cz",
    "id": 87657
  },
  {
    "lat": 48.8015891,
    "lng": 17.0227602,
    "name": "Vinařství Glosovi",
    "picture": "morvesglosovi720x540.jpg",
    "address": "Na Výsluní 841",
    "postalCode": "691 55 Moravská Nová Ves",
    "phoneNumber": "420 607 180 237",
    "url": "http://www.vinarstvi-glosovi.cz",
    "website": "vinarstvi-glosovi.cz",
    "id": 78897
  },
  {
    "lat": 48.799228,
    "lng": 17.025425,
    "name": "Vinařství Frýdek",
    "picture": "morvesfrydek720x540.jpg",
    "address": "U Sokolovny 868",
    "postalCode": "691 55 Moravská Nová Ves",
    "phoneNumber": "721 684 571 ",
    "url": "http://www.frydek.com",
    "website": "frydek.com",
    "id": 60007
  },
  {
    "lat": 48.8115583,
    "lng": 17.0087582,
    "name": "U Terezy a Jakuba",
    "picture": "morvesterez720x540.jpg",
    "address": "Hliník",
    "postalCode": "691 55 Moravská Nová Ves",
    "phoneNumber": "721 732 563",
    "url": "http://www.vinnysklep.penzion.com",
    "website": "vinnysklep.penzion.com",
    "id": 29768
  },
  {
    "lat": 48.7925106,
    "lng": 16.9721376,
    "name": "Vinařství Nešpor",
    "picture": "hruskynespor720x540.jpg",
    "address": "Na rynku 165",
    "postalCode": "691 56 Hrušky",
    "phoneNumber": "420 723 340 071",
    "url": "http://www.vinarstvinespor.cz",
    "website": "vinarstvinespor.cz",
    "id": 17578
  },
  {
    "lat": 48.7903598,
    "lng": 16.9738716,
    "name": "Marcel Klimeš",
    "picture": "hruskyklimes720x540.jpg",
    "address": "Hlavní 54",
    "postalCode": "691 56 Hrušky",
    "phoneNumber": "420 606 427 632",
    "url": "http://www.vinoklimes.cz",
    "website": "vinoklimes.cz",
    "id": 97304
  },
  {
    "lat": 48.7938282,
    "lng": 16.9632888,
    "name": "Vinařství u Nešporů",
    "picture": "hruskyunespora720x540.jpg",
    "address": "U hřiště 251",
    "postalCode": "691 56 Hrušky",
    "phoneNumber": "420 608 636 041",
    "url": "http://www.vinarstvi-u-nesporu.cz",
    "website": "vinarstvi-u-nesporu.cz",
    "id": 72402
  },
  {
    "lat": 48.7958181,
    "lng": 16.9694191,
    "name": "Rodinné vinařství Beneš",
    "picture": "hruskybenes720x540.jpg",
    "address": "Na Kanadě 377",
    "postalCode": "691 56 Hrušky",
    "phoneNumber": "607 829 755",
    "url": "http://www.vinobenes.cz",
    "website": "vinobenes.cz",
    "id": 57759
  },
  {
    "lat": 48.955464,
    "lng": 16.9975204,
    "name": "GRMOLEC rodinné vinařství",
    "picture": "hovoranygrmolec720x540.jpg",
    "address": "Hovorany 243",
    "postalCode": "696 12 Hovorany",
    "phoneNumber": "420 606 117 172",
    "url": "http://www.grmolec.cz",
    "website": "grmolec.cz",
    "id": 92475
  },
  {
    "lat": 48.9331246,
    "lng": 16.8821046,
    "name": "Vinařství Herzánovi",
    "picture": "kobyliherzanovi720x540.jpg",
    "address": "Kobylí 562",
    "postalCode": "691 10 Kobylí",
    "phoneNumber": "728 089 396",
    "url": "http://www.vinarstviherzanovi.eu",
    "website": "vinarstviherzanovi.eu",
    "id": 93057
  },
  {
    "lat": 48.9289305,
    "lng": 16.8989018,
    "name": "Vinařství Lanžhotský",
    "picture": "kobylilanzhotsky720x540.jpg",
    "address": "Kobylí 861",
    "postalCode": "691 10 Kobylí",
    "phoneNumber": "420 604 15 17 37",
    "url": "http://www.vinarstvilanzhotsky.cz",
    "website": "vinarstvilanzhotsky.cz",
    "id": 13829
  },
  {
    "lat": 48.9340315,
    "lng": 16.8849792,
    "name": "Vinařství Bukovský",
    "picture": "kobylibukovsky720x540.jpg",
    "address": "Kobylí 231",
    "postalCode": "691 10 Kobylí",
    "phoneNumber": "777 134 616",
    "url": "http://www.vinarstvibukovsky.cz",
    "website": "",
    "id": 28034
  },
  {
    "lat": 48.9335073,
    "lng": 16.8851376,
    "name": "Vinařství Vajbar",
    "picture": "kobylivajbar720x540.jpg",
    "address": "Kobylí 509",
    "postalCode": "691 10 Kobylí",
    "phoneNumber": "604 235 048",
    "url": "http://www.vajbar.cz",
    "website": "vajbar.cz",
    "id": 83075
  },
  {
    "lat": 48.9141447,
    "lng": 16.8977395,
    "name": "Vinařství Bočko",
    "picture": "vrbovicebocko720x540.jpg",
    "address": "Vrbice 237",
    "postalCode": "691 09 Vrbice",
    "phoneNumber": "724 238 391",
    "url": "http://www.vinarstvibocko.cz",
    "website": "vinarstvibocko.cz",
    "id": 37691
  },
  {
    "lat": 48.916831,
    "lng": 16.8995771,
    "name": "Rodinné vinařství Bařina",
    "picture": "vrbicebarina720x540.jpg",
    "address": "Vrbice 98",
    "postalCode": "691 09 Vrbice",
    "phoneNumber": "777 685 499",
    "url": "http://www.vinobarina.cz",
    "website": "vinobarina.cz",
    "id": 11133
  },
  {
    "lat": 48.918806,
    "lng": 16.899121,
    "name": "Vinařství Zálešák",
    "picture": "vrbicezalesak720x540.jpg",
    "address": "Vrbice 409",
    "postalCode": "691 09 Vrbice",
    "phoneNumber": "420 7331 482 87",
    "url": "http://www.vinarstvi-zalesak.cz",
    "website": "vinarstvi-zalesak.cz",
    "id": 63213
  },
  {
    "lat": 48.9179648,
    "lng": 16.8997313,
    "name": "Vinařství Fridrichovi a Trtkovi",
    "picture": "vrbovicefridrich720x540.jpg",
    "address": "Vrbice",
    "postalCode": "691 09 Vrbice",
    "phoneNumber": "605763351",
    "url": "http://www.fridrichovi.cz",
    "website": "fridrichovi.cz",
    "id": 21862
  },
  {
    "lat": 48.76639,
    "lng": 16.9905639,
    "name": "Vinařství Kosík",
    "picture": "tvrdonicekosik720x540.jpg",
    "address": "Kostická 122/26",
    "postalCode": "Tvrdonice 691 53",
    "phoneNumber": "420 728 750 209",
    "url": "http://www.ukosiku.cz",
    "website": "ukosiku.cz",
    "id": 17209
  },
  {
    "lat": 48.7246687,
    "lng": 16.9636387,
    "name": "Vinařství Josef Uher",
    "picture": "lanzhotuher720x540.jpg",
    "address": "Hrnčířská 1260/7",
    "postalCode": "691 51 Lanžhot",
    "phoneNumber": "607 603 325",
    "url": "http://www.vinarstvi-uher.cz",
    "website": "vinarstvi-uher.cz",
    "id": 20024
  },
  {
    "lat": 48.748364,
    "lng": 16.982416,
    "name": "Rodinné vinařství Blažek",
    "picture": "kosticeblazek720x540.jpg",
    "address": "Tvrdonská 5",
    "postalCode": "691 52 Kostice",
    "phoneNumber": "721 683 008",
    "url": "http://www.vinarstviblazek.cz",
    "website": "vinarstviblazek.cz",
    "id": 49528
  },
  {
    "lat": 48.8186338,
    "lng": 17.0520293,
    "name": "Rodinné vinařství Bartoníkovi",
    "picture": "mikulcicebartonikovi720x540.jpg",
    "address": "Mikulčice 236",
    "postalCode": "696 19 Mikulčice",
    "phoneNumber": "420 731 159 010",
    "url": "http://www.vinobartonik.cz",
    "website": "vinobartonik.cz",
    "id": 40935
  },
  {
    "lat": 48.8970057,
    "lng": 16.9408924,
    "name": "Vinařství Michna",
    "picture": "cejkovicemichna720x540.jpg",
    "address": "U Kapličky 593",
    "postalCode": "Čejkovice 696 15",
    "phoneNumber": "420 608 531 377",
    "url": "http://www.vinarstvimichna.cz",
    "website": "vinarstvimichna.cz",
    "id": 6873
  },
  {
    "lat": 48.902544,
    "lng": 16.949885,
    "name": "Víno Škrobák",
    "picture": "cejkoviceskrobak720x540.jpg",
    "address": "Příhon 942",
    "postalCode": "Čejkovice 696 15",
    "phoneNumber": "420 773 993 905",
    "url": "http://www.vinoskrobak.cz",
    "website": "vinoskrobak.cz",
    "id": 23287
  },
  {
    "lat": 48.9033438,
    "lng": 16.9482682,
    "name": "Víno Sýkora",
    "picture": "cejkovicevinosykora720x540.jpg",
    "address": "Čejkovice Příhon 1",
    "postalCode": "Čejkovice 696 15",
    "phoneNumber": "725 835 659",
    "url": "http://www.vinosykora.cz",
    "website": "vinosykora.cz",
    "id": 37891
  },
  {
    "lat": 48.9032005,
    "lng": 16.9414946,
    "name": "Vinařství Libor Veverka",
    "picture": "cejkoviceveverka720x540.jpg",
    "address": "Městečko 145",
    "postalCode": "Čejkovice 696 15",
    "phoneNumber": "723 446 526",
    "url": "http://www.vinoveverka.cz",
    "website": "vinoveverka.cz",
    "id": 72406
  },
  {
    "lat": 48.9034195,
    "lng": 16.9457024,
    "name": "Templářské sklepy Čejkovice",
    "picture": "cejkovicetemplar720x540.jpg",
    "address": "Na Bařině 945",
    "postalCode": "Čejkovice 696 15",
    "phoneNumber": "420 606 746 430",
    "url": "http://www.templarske-sklepy.cz",
    "website": "templarske-sklepy.cz",
    "id": 36889
  },
  {
    "lat": 48.9037989,
    "lng": 16.9459159,
    "name": "Sklep U Templářských rytířů",
    "picture": "cejkovicetemplarsklep720x540.jpg",
    "address": "Na Bařině",
    "postalCode": "Čejkovice 696 15",
    "phoneNumber": "777 566 770",
    "url": "http://www.vinarnacejkovice.cz",
    "website": "vinarnacejkovice.cz",
    "id": 66306
  },
  {
    "lat": 48.9028392,
    "lng": 16.9361886,
    "name": "Vinařství Otto Ilčík",
    "picture": "cejkoviceilcik720x540.jpg",
    "website": "",
    "address": "Zahradní 761",
    "postalCode": "Čejkovice 696 15",
    "phoneNumber": "518 362 752",
    "url": "http://www.vino-ilcik.cz",
    "website": "vino-ilcik.cz",
    "id": 18281
  },
  {
    "lat": 48.9072755,
    "lng": 16.9424398,
    "name": "Vinařství Jaroslav Pavka",
    "picture": "cejkovicepavka720x540.jpg",
    "address": "Peckova 29",
    "postalCode": "Čejkovice 696 15",
    "phoneNumber": "420 604 435 069",
    "url": "http://www.vinopavka.cz",
    "website": "vinopavka.cz",
    "id": 66434
  },
  {
    "lat": 48.9018341,
    "lng": 16.94989,
    "name": "Vinařství Hřiba",
    "picture": "cejkovicehriba720x540.jpg",
    "address": "Příhon 937",
    "postalCode": "Čejkovice 696 15",
    "phoneNumber": "420 728 020 800",
    "url": "http://www.vinohriba.cz",
    "website": "vinohriba.cz",
    "id": 93238
  },
  {
    "lat": 48.9079596,
    "lng": 16.9419395,
    "name": "Vinařství Petr Bíza",
    "picture": "cejkovicebiza720x540.jpg",
    "address": "Peckova 68",
    "postalCode": "Čejkovice 696 15",
    "phoneNumber": "420 776 120 439",
    "url": "http://www.bizavino.cz",
    "website": "bizavino.cz",
    "id": 74757
  },
  {
    "lat": 48.904886,
    "lng": 16.940341,
    "name": "Vinařství Lukáš Hlinecký",
    "picture": "cejkovicehlinecky720x540.jpg",
    "address": "Vinařská ulice, sklep č. 4",
    "postalCode": "Čejkovice 696 15",
    "phoneNumber": "420 728 428 997",
    "url": "http://www.vinohlinecky.cz",
    "website": "vinohlinecky.cz",
    "id": 32761
  },
  {
    "lat": 48.9014009,
    "lng": 16.9369579,
    "name": "Vinařství Kočařík",
    "picture": "cejkovicekocarik720x540.jpg",
    "address": "Zahradní 345",
    "postalCode": "Čejkovice 696 15",
    "phoneNumber": "608 838 502",
    "url": "http://www.kocarik.cz",
    "website": "kocarik.cz",
    "id": 8515
  },
  {
    "lat": 48.8444678,
    "lng": 16.6447241,
    "name": "Vinařství Zdeněk Peřina",
    "picture": "klentniceperina720x540.jpg",
    "address": "Klentnice 194",
    "postalCode": "692 01 Klentnice",
    "phoneNumber": "420 739 349 579",
    "url": "http://www.vinoperina.cz",
    "website": "vinoperina.cz",
    "id": 92148
  },
  {
    "lat": 48.8449286,
    "lng": 16.6463548,
    "name": "Vinařství pod Hradem",
    "picture": "klentnicehrad720x540.jpg",
    "address": "Klentnice 188",
    "postalCode": "692 01 Klentnice",
    "phoneNumber": "420 606 142 028",
    "url": "http://www.vinarstvipodhradem.cz",
    "website": "vinarstvipodhradem.cz",
    "id": 39196
  },
  {
    "lat": 48.8529074,
    "lng": 16.6276756,
    "name": "Vinařství Pergen",
    "picture": "pernapergen720x540.jpg",
    "address": "Perná 176",
    "postalCode": "691 86 Perná",
    "phoneNumber": "420 602 776 105",
    "url": "http://www.http://pergen.cz",
    "website": "http://pergen.cz",
    "id": 64189
  },
  {
    "lat": 48.8522845,
    "lng": 16.6284779,
    "name": "Vinařství Milan Kosík",
    "picture": "pernakosik720x540.jpg",
    "address": "Perná 212",
    "postalCode": "691 86 Perná",
    "phoneNumber": "724 795 964",
    "url": "http://www.vino-palava.cz",
    "website": "vino-palava.cz",
    "id": 55414
  },
  {
    "lat": 48.8758301,
    "lng": 16.6240835,
    "name": "Vinařství Červinka",
    "picture": "vestonicecervinka720x540.jpg",
    "address": "Hlavní 25",
    "postalCode": "691 81 Horní Věstonice",
    "phoneNumber": "420 777 787 478",
    "url": "http://www.vinarstvi-cervinka.cz",
    "website": "vinarstvi-cervinka.cz",
    "id": 18805
  },
  {
    "lat": 48.8736403,
    "lng": 16.6246915,
    "name": "Moravčíkova Vína",
    "picture": "vestonicemoravcikova720x540.jpg",
    "address": "Věstonice 161",
    "postalCode": "691 81 Horní Věstonice",
    "phoneNumber": "607 115 282",
    "url": "http://www.moravcikovavina.cz",
    "website": "moravcikovavina.cz",
    "id": 88619
  },
  {
    "lat": 48.8871039,
    "lng": 16.6542882,
    "name": "Vinárna U Langrů",
    "picture": "vestonicelangr720x540.jpg",
    "address": "Věstonice 123",
    "postalCode": "691 29 Dolní Věstonice",
    "phoneNumber": "721 123 705",
    "url": "http://www.ulangru.cz",
    "website": "ulangru.cz",
    "id": 92652
  },
  {
    "lat": 48.8328215,
    "lng": 16.7435104,
    "name": "Vinařství Nad Sklepy",
    "picture": "bulharynadsklepy720x540.jpg",
    "address": "Bulhary č.p.210",
    "postalCode": "Bulhary 691 89",
    "phoneNumber": "777 172 297",
    "url": "http://www.nadsklepy.cz",
    "website": "nadsklepy.cz",
    "id": 31751
  },
  {
    "lat": 48.8294868,
    "lng": 16.7530698,
    "name": "Vinařství Fuzgrunty",
    "picture": "bulharyfuzgrunty720x540.jpg",
    "address": "Bulhary 118",
    "postalCode": "691 89 Bulhary",
    "phoneNumber": "420 606 542 326",
    "url": "http://www.penzionfuzgrunty.cz",
    "website": "penzionfuzgrunty.cz",
    "id": 19849
  },
  {
    "lat": 48.8555561,
    "lng": 16.7729984,
    "name": "Vinařství Přítluky",
    "picture": "pritlukyvinarstvi720x540.jpg",
    "address": "Horní 114",
    "postalCode": "691 04 Přítluky",
    "phoneNumber": "420 605 366 215",
    "url": "http://www.vinarstvipritluky.cz",
    "website": "vinarstvipritluky.cz",
    "id": 55229
  },
  {
    "lat": 48.7745103,
    "lng": 16.7668574,
    "name": "Vinařství Pod Mezů",
    "picture": "hlohovecmez720x540.jpg",
    "address": "U Sadů",
    "postalCode": "691 43 Hlohovec",
    "phoneNumber": "777 001 628",
    "url": "http://www.pod-mezu.business.site",
    "website": "pod-mezu.business.site",
    "id": 53139
  },
  {
    "lat": 48.772773,
    "lng": 16.765698,
    "name": "Vinařství Jaroslav Šlichta",
    "picture": "hlohovecslichta720x540.jpg",
    "address": "Dědina 439",
    "postalCode": "Hlohovec 691 43",
    "phoneNumber": "723 157 475",
    "url": "http://www.vinarstvislichta.cz",
    "website": "vinarstvislichta.cz",
    "id": 69327
  },
  {
    "lat": 48.8730939,
    "lng": 16.6677344,
    "name": "Vinařství Vilém Topolanský",
    "picture": "pavlovtopolansky720x540.jpg",
    "address": "ul.Česká E79",
    "postalCode": "692 01 Pavlov",
    "phoneNumber": "724 263 561",
    "url": "http://www.vinarstvitopolansky.cz",
    "website": "vinarstvitopolansky.cz",
    "id": 56466
  },
  {
    "lat": 48.8062229,
    "lng": 16.6383637,
    "name": "Vinařské centrum Mikulov",
    "picture": "mikulovcentrum720x540.jpg",
    "address": "Náměstí 199",
    "postalCode": "692 01 Mikulov",
    "phoneNumber": "420 777 922 600",
    "url": "http://www.vinotekamikulov.cz",
    "website": "vinotekamikulov.cz",
    "id": 32143
  },
  {
    "lat": 48.8079355,
    "lng": 16.6384513,
    "name": "Vinotéka Vinařství Volařík",
    "picture": "mikulovvolarik720x540.jpg",
    "address": "Kostelní náměstí 155/8",
    "postalCode": "692 01 Mikulov",
    "phoneNumber": "420 739 732 705",
    "url": "http://www.mhmikulov.cz/cs/vinoteka",
    "website": "mhmikulov.cz",
    "id": 41301
  },
  {
    "lat": 48.8010381,
    "lng": 16.6455067,
    "name": "WINBERG Mikulov",
    "picture": "mikulovwinberg720x540.jpg",
    "address": "Valtická 841/11",
    "postalCode": "692 01 Mikulov",
    "phoneNumber": "420 722 004 061",
    "url": "http://www.winberg.cz",
    "website": "winberg.cz",
    "id": 34247
  },
  {
    "lat": 48.8097373,
    "lng": 16.6346982,
    "name": "Vinařství rodu Pazderků",
    "picture": "mikulovpazderku720x540.jpg",
    "address": "Brněnská 26",
    "postalCode": "692 01 Mikulov",
    "phoneNumber": "420 602 567 640",
    "url": "http://www.dionysos.breclavsko.com",
    "website": "dionysos.breclavsko.com",
    "id": 21095
  },
  {
    "lat": 48.8139161,
    "lng": 16.6381362,
    "name": "Vinařství Turold Mikulov",
    "picture": "turoldmikulov720x540.jpg",
    "address": "Gagarinova 83/39",
    "postalCode": "692 01 Mikulov",
    "phoneNumber": "777 134 245",
    "url": "http://www.turold-mikulov.cz",
    "website": "turold-mikulov.cz",
    "id": 52602
  },
  {
    "lat": 48.8145311,
    "lng": 16.6514019,
    "name": "Víno Lípa Mikulov",
    "picture": "mikulovlipa720x540.jpg",
    "address": "Žižkova 27",
    "postalCode": "692 01 Mikulov",
    "phoneNumber": "608 83 03 55",
    "url": "http://www.vinolipa.cz",
    "website": "vinolipa.cz",
    "id": 28708
  },
  {
    "lat": 48.8069713,
    "lng": 16.6414257,
    "name": "Vinárna U Hroznu",
    "picture": "mikulovuhroznu720x540.jpg",
    "address": "Kamenný řádek 775/3",
    "postalCode": "692 01 Mikulov",
    "phoneNumber": "737 857 603",
    "url": "http://www.vinarna-uhroznu.wz.cz",
    "website": "vinarna-uhroznu.wz.cz",
    "id": 71461
  },
  {
    "lat": 48.8011703,
    "lng": 16.642819,
    "name": "Vinařství Kosek",
    "picture": "mikulovkosek720x540.jpg",
    "address": "Vídeňská 43",
    "postalCode": "692 01 Mikulov",
    "phoneNumber": "420 777 824 298",
    "url": "http://www.vinarstvikosek.cz",
    "website": "vinarstvikosek.cz",
    "id": 44200
  },
  {
    "lat": 48.8097619,
    "lng": 16.6370348,
    "name": "Vinařství Solařík",
    "picture": "mikulovsolarik720x540.jpg",
    "address": "Kozí hrádek 1510/2",
    "postalCode": "692 01 Mikulov",
    "phoneNumber": "773 910 062",
    "url": "http://www.podkozimhradkem.cz",
    "website": "podkozimhradkem.cz",
    "id": 20750
  },
  {
    "lat": 48.810054,
    "lng": 16.638587,
    "name": "Vinný sklep u Čermáka",
    "picture": "mikulovcermak720x540.jpg",
    "address": "Kozí Hrádek 768E",
    "postalCode": "692 01 Mikulov",
    "phoneNumber": "420 774 491 232",
    "url": "http://www.sklipekmikulov.cz",
    "website": "sklipekmikulov.cz/",
    "id": 61033
  },
  {
    "lat": 48.8122767,
    "lng": 16.6505081,
    "name": "Vinný sklep U Konšelů",
    "picture": "mikulovukonselu720x540.jpg",
    "address": "Bezručova 543",
    "postalCode": "692 01 Mikulov",
    "phoneNumber": "420 607 537 784",
    "url": "http://www.ukonselu.cz",
    "website": "ukonselu.cz",
    "id": 50464
  },
  {
    "lat": 48.8077644,
    "lng": 16.6408885,
    "name": "Vinárna  Galant",
    "picture": "mikulovgalant720x540.jpg",
    "address": "Mlýnská 2",
    "postalCode": "692 01 Mikulov",
    "phoneNumber": "420 725 422 219",
    "url": "http://www.galant.cz",
    "website": "galant.cz",
    "id": 42490
  },
  {
    "lat": 48.8562803,
    "lng": 16.5909966,
    "name": "Vinařský dvůr U Mlýnků",
    "picture": "dunaumlynku720x540.jpg",
    "address": "Hlavní 555",
    "postalCode": "691 85 Dolní Dunajovice",
    "phoneNumber": "607 005 060",
    "url": "http://www.umlynku.cz",
    "website": "umlynku.cz",
    "id": 87262
  },
  {
    "lat": 48.854411,
    "lng": 16.583103,
    "name": "Vinařství Baláž",
    "picture": "dunabalaz720x540.jpg",
    "address": "č. p. 654",
    "postalCode": "691 85 Dolní Dunajovice",
    "phoneNumber": "420 725 043 567",
    "url": "http://www.vinarstvibalaz.cz",
    "website": "vinarstvibalaz.cz",
    "id": 16241
  },
  {
    "lat": 48.8573313,
    "lng": 16.5907259,
    "name": "Víno Jarmila",
    "picture": "dunajarmila720x540.jpg",
    "address": "Kostelní 621",
    "postalCode": "691 85 Dolní Dunajovice",
    "phoneNumber": "775 127 730",
    "url": "http://www.vinojarmila.cz",
    "website": "vinojarmila.cz",
    "id": 10929
  },
  {
    "lat": 48.8473574,
    "lng": 16.590701,
    "name": "Vinotéka Dolní Dunajovice",
    "picture": "dunateka720x540.jpg",
    "address": "Rudé Armády 533",
    "postalCode": "691 85 Dolní Dunajovice",
    "phoneNumber": "725 818 588",
    "url": "http://www.marianbester.wixsite.com",
    "website": "marianbester.wixsite.com",
    "id": 53600
  },
  {
    "lat": 48.847085,
    "lng": 16.58993,
    "name": "Vinařství Šoman",
    "picture": "dunasoman720x540.jpg",
    "address": "Sklepní 321",
    "postalCode": "691 85 Dolní Dunajovice",
    "phoneNumber": "420 603 285 848",
    "url": "http://www.vinarstvisoman.cz",
    "website": "vinarstvisoman.cz",
    "id": 72534
  },
  {
    "lat": 48.8482892,
    "lng": 16.5905664,
    "name": "Vinařství Zámečník",
    "picture": "dunazamecnik720x540.jpg",
    "address": "Polní 636",
    "postalCode": "691 85 Dolní Dunajovice",
    "phoneNumber": "732 176 690",
    "url": "http://www.vinozamecnik.cz",
    "website": "vinozamecnik.cz",
    "id": 71087
  },
  {
    "lat": 48.8500536,
    "lng": 16.5891742,
    "name": "Vinařství Tichý",
    "picture": "dunatichy720x540.jpg",
    "address": "Sklepní 330",
    "postalCode": "691 85 Dolní Dunajovice",
    "phoneNumber": "420 723 085 279",
    "url": "http://www.vinarstvitichy.cz",
    "website": "vinarstvitichy.cz",
    "id": 32211
  },
  {
    "lat": 48.8573626,
    "lng": 16.5848553,
    "name": "Vinařství Zimní Vrch",
    "picture": "dunazima720x540.jpg",
    "address": "Hlavní 131",
    "postalCode": "691 85 Dolní Dunajovice",
    "phoneNumber": "720 455 148",
    "url": "http://www.zimnivrch.cz",
    "website": "zimnivrch.cz",
    "id": 901
  },
  {
    "lat": 48.8479212,
    "lng": 16.5908709,
    "name": "Rodinné vinařství Matula",
    "picture": "dunamatula720x540.jpg",
    "address": "ul. Rudé Armády",
    "postalCode": "691 85 Dolní Dunajovice",
    "phoneNumber": "420 606 226 368",
    "url": "http://www.vino-matula.cz",
    "website": "vino-matula.cz",
    "id": 1394
  },
  {
    "lat": 48.8479264,
    "lng": 16.5802053,
    "name": "Vinařství Mikrosvín Mikulov",
    "picture": "dunamikrosovin720x540.jpg",
    "address": "Sklepní 657",
    "postalCode": "691 85 Dolní Dunajovice",
    "phoneNumber": "777 454 900",
    "url": "http://www.mikrosvin.cz",
    "website": "mikrosvin.cz",
    "id": 99971
  },
  {
    "lat": 48.8500937,
    "lng": 16.5896511,
    "name": "Vinařství Holec",
    "picture": "dunaholec720x540.jpg",
    "address": "Sklepní 581",
    "postalCode": "691 85 Dolní Dunajovice",
    "phoneNumber": "733 196 952",
    "url": "http://www.vinoholec.cz",
    "website": "vinoholec.cz",
    "id": 7859
  },
  {
    "lat": 48.8570207,
    "lng": 16.5866439,
    "name": "Sklípek u Kozlíků",
    "picture": "dunakozel720x540.jpg",
    "address": "U Pekárny 680",
    "postalCode": "691 85 Dolní Dunajovice",
    "phoneNumber": "724 669 492",
    "url": "http://www.sklipekukozliku.cz",
    "website": "sklipekukozliku.cz",
    "id": 99758
  },
  {
    "lat": 48.8178584,
    "lng": 16.5671239,
    "name": "Vinařství Vavříček",
    "picture": "brezivavricek720x540.jpg",
    "address": "U hřiště 604",
    "postalCode": "691 81 Březí u Mikulova",
    "phoneNumber": "731 463 930",
    "url": "http://www.vavricek.eu",
    "website": "vavricek.eu",
    "id": 27827
  },
  {
    "lat": 48.82103,
    "lng": 16.5682141,
    "name": "Vinařský dům SH Březí",
    "picture": "brezish720x540.jpg",
    "address": "Na Štěrkách 548",
    "postalCode": "691 81 Březí u Mikulova",
    "phoneNumber": "420 737 429 991",
    "url": "http://www.vinarsky-dum-sh.cz",
    "website": "vinarsky-dum-sh.cz",
    "id": 33655
  },
  {
    "lat": 48.8192683,
    "lng": 16.5605227,
    "name": "VÍNO D.K.S.",
    "picture": "brezikern720x540.jpg",
    "address": "Sklepní 546",
    "postalCode": "691 81 Březí u Mikulova",
    "phoneNumber": "736 624 086",
    "url": "http://www.vinarstvikern.cz",
    "website": "vinarstvikern.cz",
    "id": 15687
  },
  {
    "lat": 48.81982,
    "lng": 16.5615083,
    "name": "Vinařství Kňourek",
    "picture": "breziknourek720x540.jpg",
    "address": "Sklepní 562",
    "postalCode": "691 81 Březí u Mikulova",
    "phoneNumber": "420 721 744 231",
    "url": "http://www.vinarstvi-knourek.cz",
    "website": "vinarstvi-knourek.cz",
    "id": 94742
  },
  {
    "lat": 48.8334546,
    "lng": 16.6203462,
    "name": "Vinařství Tanzberg",
    "picture": "bavorytanzberg720x540.jpg",
    "address": "Bavory 132",
    "postalCode": "692 01 Bavory",
    "phoneNumber": "606 294 910",
    "url": "http://www.tanzberg.cz",
    "website": "tanzberg.cz",
    "id": 20711
  },
  {
    "lat": 48.8336598,
    "lng": 16.6210317,
    "name": "Degustarium Bavory",
    "picture": "bavorydegustarium720x540.jpg",
    "address": "Bavory č.p. 94",
    "postalCode": "692 01 Bavory",
    "phoneNumber": "420 777 677 644",
    "url": "http://www.degustarium.cz",
    "website": "degustarium.cz",
    "id": 17422
  },
  {
    "lat": 48.835377,
    "lng": 16.624101,
    "name": "Gala Vinařství",
    "picture": "bavorygala720x540.jpg",
    "address": "Bavory 158",
    "postalCode": "692 01 Bavory",
    "phoneNumber": "603 570 013",
    "url": "http://www.galavinarstvi.cz",
    "website": "galavinarstvi.cz",
    "id": 45209
  },
  {
    "lat": 48.8365484,
    "lng": 16.6239326,
    "name": "Vinařství Kořenek",
    "picture": "bavorykorenek720x540.jpg",
    "address": "Bavory 57",
    "postalCode": "692 01 Bavory",
    "phoneNumber": "602 567 611",
    "url": "http://www.vinarstvikorenek.cz",
    "website": "vinarstvikorenek.cz",
    "id": 52091
  },
  {
    "lat": 48.8354006,
    "lng": 16.6232215,
    "name": "Vinařství Drmola",
    "picture": "bavorydrmola720x540.jpg",
    "address": "Bavory 46",
    "postalCode": "692 01 Bavory",
    "phoneNumber": "420 736 487 749",
    "url": "http://www.vinarstvidrmola.cz",
    "website": "vinarstvidrmola.cz",
    "id": 71964
  },
  {
    "lat": 48.8334023,
    "lng": 16.6223522,
    "name": "Apartmány Bavory",
    "picture": "bavorypardof720x540.jpg",
    "address": "Bavory 138",
    "postalCode": "692 01 Bavory",
    "phoneNumber": "737 246 500",
    "url": "http://www.degustacni-salon.cz",
    "website": "degustacni-salon.cz",
    "id": 56847
  },
  {
    "lat": 48.7992916,
    "lng": 16.685212,
    "name": "Vinařství Vican",
    "picture": "mikulovvican720x540.jpg",
    "address": "Mušlov 30",
    "postalCode": "Mikulov 692 01",
    "phoneNumber": "420 724 306 029",
    "url": "http://www.vican.wine",
    "website": "vican.wine",
    "id": 10582
  },
  {
    "lat": 48.7442284,
    "lng": 16.7025788,
    "name": "Vinařství Ing. Valentová",
    "picture": "uvalydaniela720x540.jpg",
    "address": "Úvaly 77",
    "postalCode": "691 42 Valtice",
    "phoneNumber": "420 774 111 776",
    "url": "http://www.sklepuvaly.cz",
    "website": "sklepuvaly.cz",
    "id": 26608
  },
  {
    "lat": 48.7802454,
    "lng": 16.6870252,
    "name": "Víno Filip",
    "picture": "sedlecfilip720x540.jpg",
    "address": "Sedlec 66",
    "postalCode": "69121 Sedlec u Mikulova",
    "phoneNumber": "420 775 014 124",
    "url": "http://www.vinofilip.cz",
    "website": "vinofilip.cz",
    "id": 5612
  },
  {
    "lat": 48.7808299,
    "lng": 16.7054529,
    "name": "ZD Sedlec u Mikulova",
    "picture": "sedlecvina720x540.jpg",
    "address": "Sedlec 308",
    "postalCode": "69121 Sedlec u Mikulova",
    "phoneNumber": "777 719 117",
    "url": "http://www.sedleckavina.cz",
    "website": "sedleckavina.cz",
    "id": 70525
  },
  {
    "lat": 48.7811272,
    "lng": 16.6978794,
    "name": "Vinařský dům Sedlec",
    "picture": "sedlecdum720x540.jpg",
    "address": "Sedlec 162",
    "postalCode": "69121 Sedlec u Mikulova",
    "phoneNumber": "420 724 210 502",
    "url": "http://www.vinarskydumsedlec.cz",
    "website": "vinarskydumsedlec.cz",
    "id": 38313
  },
  {
    "lat": 48.780592,
    "lng": 16.694991,
    "name": "Penzion Nad sklepem",
    "picture": "sedlenadsklepem720x540.jpg",
    "address": "Sedlec 319",
    "postalCode": "69121 Sedlec u Mikulova",
    "phoneNumber": "420 605 211 299",
    "url": "http://www.nadsklepem.cz",
    "website": "nadsklepem.cz",
    "id": 17870
  },
  {
    "lat": 48.8735336,
    "lng": 16.6679401,
    "name": "Vinařství Antoš",
    "picture": "pavlovantos720x540.jpg",
    "address": "Česká 91",
    "postalCode": "692 01 Pavlov",
    "phoneNumber": "420 739 429 431",
    "url": "http://www.vinarstviantos.cz",
    "website": "vinarstviantos.cz",
    "id": 73343
  },
  {
    "lat": 48.8728729,
    "lng": 16.6669798,
    "name": "Vinařství Garčic",
    "picture": "pavlovgarcic720x540.jpg",
    "address": "Vinařská 237",
    "postalCode": "692 01 Pavlov",
    "phoneNumber": "420 728 746 500",
    "url": "http://www.vinarstvigarcic.cz",
    "website": "vinarstvigarcic.cz",
    "id": 37311
  },
  {
    "lat": 48.8713662,
    "lng": 16.6663138,
    "name": "Vinařství Jiří Šilinek",
    "picture": "silinkovi720x540.jpg",
    "address": "Rudolfa Gajdoše 192",
    "postalCode": "692 01 Pavlov",
    "phoneNumber": "420 602 790 784",
    "url": "http://www.silinek.eu",
    "website": "silinek.eu",
    "id": 61372
  },
  {
    "lat": 48.868701,
    "lng": 16.667082,
    "name": "Vinařství Reisten",
    "picture": "pavlovreisten720x540.jpg",
    "address": "Zahradní 288",
    "postalCode": "692 01 Pavlov",
    "phoneNumber": "420 727 963 406 ",
    "url": "http://www.reisten.net",
    "website": "reisten.net",
    "id": 627
  },
  {
    "lat": 48.8743759,
    "lng": 16.6688446,
    "name": "Vinařství NEPRAŠ & Co.",
    "picture": "pavlovnepras720x540.jpg",
    "address": "Česká 187",
    "postalCode": "692 01 Pavlov",
    "phoneNumber": "420 775 605 783",
    "url": "http://www.vinarstvinepras.cz",
    "website": "vinarstvinepras.cz",
    "id": 95891
  },
  {
    "lat": 48.8753922,
    "lng": 16.6671744,
    "name": "Vinařství Paulus",
    "picture": "pavlovpaulus720x540.jpg",
    "address": "Na Cimbuří 159",
    "postalCode": "692 01 Pavlov",
    "phoneNumber": "420 775 26 20 08",
    "url": "http://www.vinarstvipaulus.cz",
    "website": "vinarstvipaulus.cz",
    "id": 90114
  },
  {
    "lat": 48.875577,
    "lng": 16.6688481,
    "name": "Pálavská galerie vín U Venuše",
    "picture": "pavlovuvenuse720x540.jpg",
    "address": "Česká ulice 252",
    "postalCode": "692 01 Pavlov",
    "phoneNumber": "420 733 644 183",
    "url": "http://www.palavskagalerievin.cz",
    "website": "palavskagalerievin.cz",
    "id": 34819
  },
  {
    "lat": 48.8293031,
    "lng": 16.8459845,
    "name": "Vinotéka U soudku",
    "picture": "podivinusoudku720x540.jpg",
    "address": " Kopce 869/10",
    "postalCode": "691 45 Podivín",
    "phoneNumber": "420 731 780 187",
    "url": "http://www.vinotekapodivin.cz",
    "website": "vinotekapodivin.cz",
    "id": 69219
  },
  {
    "lat": 48.8274863,
    "lng": 16.8466701,
    "name": "Vinařství Radim Mildner",
    "picture": "podivinmildner720x540.jpg",
    "address": "Dolní Valy 204/1",
    "postalCode": "691 45 Podivín",
    "phoneNumber": "603 343 139",
    "url": "http://www.vinomildner.cz",
    "website": "vinomildner.cz",
    "id": 7534
  },
  {
    "lat": 48.8274705,
    "lng": 16.8472281,
    "name": "Sklepní vinárna U Františka",
    "picture": "podivinufrantiska720x540.jpg",
    "address": "Komenského 264/20",
    "postalCode": "691 45 Podivín",
    "phoneNumber": "606 796 979",
    "url": "http://www.ufrantiska.cz",
    "website": "ufrantiska.cz",
    "id": 5140
  },
  {
    "lat": 48.8364211,
    "lng": 16.8566844,
    "name": "Vinařství Hřebačka",
    "picture": "podivinhrebacka720x540.jpg",
    "address": "Za Drahou",
    "postalCode": "691 45 Podivín",
    "phoneNumber": "602 595 930",
    "url": "http://www.vinarstvihrebacka.cz",
    "website": "vinarstvihrebacka.cz",
    "id": 18562
  },
  {
    "lat": 48.8584415,
    "lng": 16.8085998,
    "name": "Vinařství Lukeš",
    "picture": "rakvicelukes720x540.jpg",
    "address": "Krátká 159",
    "postalCode": "691 03 Rakvice",
    "phoneNumber": "420 608 625 063",
    "url": "http://www.vinarstvilukes.cz",
    "website": "vinarstvilukes.cz",
    "id": 18387
  },
  {
    "lat": 48.8549095,
    "lng": 16.809426,
    "name": "Vinotéka Rakvice",
    "picture": "rakvicemichlovsky720x540.jpg",
    "address": "Luční 858",
    "postalCode": "691 03 Rakvice",
    "phoneNumber": "420 777 569 602",
    "url": "http://www.michlovsky.com",
    "website": "michlovsky.com",
    "id": 98916
  },
  {
    "lat": 48.8561651,
    "lng": 16.8140702,
    "name": "Réva Rakvice",
    "picture": "rakvicereva720x540.jpg",
    "address": "Družstevní 854",
    "postalCode": "691 03 Rakvice",
    "phoneNumber": "519 349 216",
    "url": "http://www.revarakvice.cz",
    "website": "revarakvice.cz",
    "id": 23163
  },
  {
    "lat": 48.865202,
    "lng": 16.8157259,
    "name": "Vinařský dům Dominant",
    "picture": "rakvicevino720x540.jpg",
    "address": "Na Kopcech 912",
    "postalCode": "691 03 Rakvice",
    "phoneNumber": "733 710 708",
    "url": "http://www.vinarsky-dum-dominant.cz",
    "website": "vinarsky-dum-dominant.cz",
    "id": 97418
  },
  {
    "lat": 48.8579412,
    "lng": 16.8083918,
    "name": "Vinařství Nečas",
    "picture": "rakvicenecas720x540.jpg",
    "address": "Nádražní 409",
    "postalCode": "691 03 Rakvice",
    "phoneNumber": "607 809 264",
    "url": "http://www.vinarstvinecas.cz",
    "website": "vinarstvinecas.cz",
    "id": 23299
  },
  {
    "lat": 48.851633,
    "lng": 16.8218547,
    "name": "Vinařství Pfeffer",
    "picture": "rakvicepffer720x540.jpg",
    "address": "Dolní 922",
    "postalCode": "691 03 Rakvice",
    "phoneNumber": "774 161 078",
    "url": "http://www.vinarstvi-pfeffer.cz",
    "website": "vinarstvi-pfeffer.cz",
    "id": 43114
  },
  {
    "lat": 48.8584017,
    "lng": 16.8063933,
    "name": "Vinařství Horáček",
    "picture": "rakvicehoracek720x540.jpg",
    "address": "ul. Horní sklep č.17",
    "postalCode": "691 03 Rakvice",
    "phoneNumber": " 737 309 893",
    "url": "http://www.vinarstvihoracek.cz",
    "website": "vinarstvihoracek.cz",
    "id": 7702
  },
  {
    "lat": 48.8576214,
    "lng": 16.8228991,
    "name": "Rodinné vinařství Gréger",
    "picture": "rakvicegregr720x540.jpg",
    "address": "Nová 710",
    "postalCode": "691 03 Rakvice",
    "phoneNumber": "607 533 167",
    "url": "http://www.vinarstvigreger.cz",
    "website": "vinarstvigreger.cz",
    "id": 19481
  },
  {
    "lat": 48.737275,
    "lng": 16.74897,
    "name": "Vinařství Dwořáček Valtice",
    "picture": "valticedvoracek720x540.jpg",
    "address": "Růžová 1155",
    "postalCode": "691 42 Valtice",
    "phoneNumber": "420 777 663 873",
    "url": "http://www.dworacek.cz",
    "website": "dworacek.cz",
    "id": 26327
  },
  {
    "lat": 48.7391876,
    "lng": 16.749984,
    "name": "Vinařská stodola CHÂTEAU VALTICE",
    "picture": "valticestodola720x540.jpg",
    "address": "Vinařská 407",
    "postalCode": "691 42 Valtice",
    "phoneNumber": "420 606 309 959",
    "url": "http://www.vsvaltice.cz/Vinarska-stodola",
    "website": "vsvaltice.cz",
    "id": 30237
  },
  {
    "lat": 48.739748,
    "lng": 16.750182,
    "name": "Valtické podzemí",
    "picture": "valtickepodzemi720x540.jpg",
    "address": "Vinařská č.ev. 47",
    "postalCode": "691 42 Valtice",
    "phoneNumber": "420 723 600 423",
    "url": "http://www.valtickepodzemi.cz",
    "website": "valtickepodzemi.cz",
    "id": 33585
  },
  {
    "lat": 48.7396201,
    "lng": 16.7554235,
    "name": "Národní vinařské centrum",
    "picture": "valticesalon720x540.jpg",
    "address": "Zámek 1",
    "postalCode": "691 42 Valtice",
    "phoneNumber": "606 028 574",
    "url": "http://www.http://www.vinarskecentrum.cz/salon-vin/oteviraci-doba-programy/",
    "website": "vinarskecentrum.cz",
    "id": 49183
  },
  {
    "lat": 48.7424177,
    "lng": 16.7592056,
    "name": "Vinařství pod Zámkem Valtice",
    "picture": "valticepodzamek720x540.jpg",
    "address": "Břeclavská 1100",
    "postalCode": "691 42 Valtice",
    "phoneNumber": "420 725 990 329",
    "url": "http://www.vinarstvipodzamkem.cz",
    "website": "vinarstvipodzamkem.cz",
    "id": 31252
  },
  {
    "lat": 48.7419893,
    "lng": 16.756386,
    "name": "Vinotéka U Sommeliera",
    "picture": "valticesommeliera720x540.jpg",
    "address": "nám. Svobody 14",
    "postalCode": "691 42 Valtice",
    "phoneNumber": "777 075 606",
    "url": "http://www.vinazvaltic.cz",
    "website": "vinazvaltic.cz",
    "id": 52312
  },
  {
    "lat": 48.7419055,
    "lng": 16.7560033,
    "name": "Vinařský dům Valtice",
    "picture": "valticebonum720x540.jpg",
    "address": "nám. Svobody 16",
    "postalCode": "691 42 Valtice",
    "phoneNumber": "777 743 492",
    "url": "http://www.vinumbonum.cz",
    "website": "vinumbonum.cz",
    "id": 20493
  },
  {
    "lat": 48.7401151,
    "lng": 16.7509385,
    "name": "Školní vinotéka Rolnička",
    "picture": "valticerolnicka720x540.jpg",
    "address": "Sobotní 221",
    "postalCode": "691 42 Valtice",
    "phoneNumber": "777 101 842",
    "url": "http://www.svisv.cz/skolni-prodejna",
    "website": "svisv.cz",
    "id": 20634
  },
  {
    "lat": 48.7397076,
    "lng": 16.7498097,
    "name": "Vinný sklep U Kazíků",
    "picture": "valticeukaziku720x540.jpg",
    "address": "Vinařská 79",
    "postalCode": "691 42 Valtice",
    "phoneNumber": "420 728 082 007",
    "url": "http://www.sklep.ukaziku.cz",
    "website": "sklep.ukaziku.cz",
    "id": 18364
  },
  {
    "lat": 48.742198,
    "lng": 16.765313,
    "name": "Vinný Sklípek Martin Štěpánek",
    "picture": "valticestepan720x540.jpg",
    "address": "Josefská 122",
    "postalCode": "691 42 Valtice",
    "phoneNumber": "607 618 783",
    "url": "http://www.sklipekvaltice.cz",
    "website": "sklipekvaltice.cz",
    "id": 60982
  },
  {
    "lat": 48.7427358,
    "lng": 16.7692665,
    "name": "Vinotéka Bilkovič",
    "picture": "valticenikovic720x540.jpg",
    "address": "Za Tesárnou 779",
    "postalCode": "691 42 Valtice",
    "phoneNumber": "420 607 769 159",
    "url": "http://www.penzion-sklep.webnode.cz/vinny-sklep",
    "website": "penzion-sklep.webnode.cz",
    "id": 26485
  },
  {
    "lat": 48.7412034,
    "lng": 16.7551406,
    "name": "Valtická vinárna",
    "picture": "valticevinarna720x540.jpg",
    "address": "Náměstí Svobody 22",
    "postalCode": "691 42 Valtice",
    "phoneNumber": "420 724 484 069",
    "url": "http://www.vinnysklep-valtice.cz",
    "website": "vinnysklep-valtice.cz",
    "id": 80587
  },
  {
    "lat": 48.7421797,
    "lng": 16.7568335,
    "name": "Vinotéka Procházka Valtice",
    "picture": "valticeprochazka720x540.jpg",
    "address": "nám. Svobody 40932",
    "postalCode": "691 42 Valtice",
    "phoneNumber": "731 134 443",
    "url": "http://www.valtickavina.cz",
    "website": "valtickavina.cz",
    "id": 29167
  },
  {
    "lat": 48.7497649,
    "lng": 16.7433412,
    "name": "MORAVÍNO",
    "picture": "valticemoravino720x540.jpg",
    "address": "Mikulovská 176",
    "postalCode": "691 42 Valtice",
    "phoneNumber": "420 602 505 207",
    "url": "http://www.moravino.cz",
    "website": "moravino.cz",
    "id": 92522
  },
  {
    "lat": 48.7421515,
    "lng": 16.7520297,
    "name": "Vinařství ČERNÝ Valtice",
    "picture": "valticecerny720x540.jpg",
    "address": "Střelecká 061",
    "postalCode": "691 42 Valtice",
    "phoneNumber": "420 777 580 059",
    "url": "http://www.vinarstvicerny.cz",
    "website": "vinarstvicerny.cz",
    "id": 97351
  },
  {
    "lat": 48.738188,
    "lng": 16.7513172,
    "name": "Vinný sklep René Kolář",
    "picture": "valticekolar720x540.jpg",
    "address": "Pod Parkem 13",
    "postalCode": "691 42 Valtice",
    "phoneNumber": "777 072 879",
    "url": "http://www.vinnysklep.cz24.cz",
    "website": "vinnysklep.cz24.cz",
    "id": 99810
  },
  {
    "lat": 48.9034981,
    "lng": 16.8160268,
    "name": "Vinařství V & M Zborovský",
    "picture": "pavlovicezborovsky720x540.jpg",
    "address": "Dlouhá 2",
    "postalCode": "691 06 Velké Pavlovice",
    "phoneNumber": "731 141 878",
    "url": "http://www.vinarstvizborovsky.cz",
    "website": "vinarstvizborovsky.cz",
    "id": 13060
  },
  {
    "lat": 48.8975388,
    "lng": 16.8206774,
    "name": "Vinium ",
    "picture": "pavlovicevinium720x540.jpg",
    "address": "Hlavní 666",
    "postalCode": "691 06 Velké Pavlovice",
    "phoneNumber": "420 519 403 111",
    "url": "http://www.vinium.cz",
    "website": "vinium.cz",
    "id": 74493
  },
  {
    "lat": 48.9147182,
    "lng": 16.8560201,
    "name": "Vinařství SPRINGER",
    "picture": "boreticespringer720x540.jpg",
    "address": "Bořetice 402",
    "postalCode": "691 08 Bořetice",
    "phoneNumber": "420 606 702 971",
    "url": "http://www.springer.cz",
    "website": "springer.cz",
    "id": 26784
  },
  {
    "lat": 48.9194405,
    "lng": 16.8453944,
    "name": "Rodinné vinařství Jedlička",
    "picture": "boreticejedlicka720x540.jpg",
    "address": "Bořetice 511",
    "postalCode": "691 08 Bořetice",
    "phoneNumber": "420 519 430 107",
    "url": "http://www.vinoboretice.cz",
    "website": "vinoboretice.cz",
    "id": 16444
  },
  {
    "lat": 48.920014,
    "lng": 16.8476,
    "name": "Rodinné vinařství Pod horou",
    "picture": "boreticepodhorou720x540.jpg",
    "address": "Kraví hora 533",
    "postalCode": "691 08 Bořetice",
    "phoneNumber": "420 721 375 999",
    "url": "http://www.vinozboretic.cz",
    "website": "vinozboretic.cz",
    "id": 19318
  },
  {
    "lat": 48.920836,
    "lng": 16.849428,
    "name": "Vinařství Baraque",
    "picture": "boreticebaraque720x540.jpg",
    "address": "Kraví hora ev.č.175",
    "postalCode": "691 08 Bořetice",
    "phoneNumber": "776 823 694",
    "url": "http://www.vinarstvibaraque.cz",
    "website": "vinarstvibaraque.cz",
    "id": 36409
  },
  {
    "lat": 48.9206134,
    "lng": 16.84858,
    "name": "AB Vinný sklípek",
    "picture": "boreticeab720x540.jpg",
    "address": "Kraví hora sklep č.56",
    "postalCode": "691 08 Bořetice",
    "phoneNumber": "608 129 062",
    "url": "http://www.absklipek.cz",
    "website": "absklipek.cz",
    "id": 9692
  },
  {
    "lat": 48.9206972,
    "lng": 16.8491248,
    "name": "Vinný sklep U Surmanů",
    "picture": "boreticesurmamaovi720x540.jpg",
    "address": "Kraví hora č.ev 189",
    "postalCode": "691 08 Bořetice",
    "phoneNumber": "420 777 690 699",
    "url": "http://www.surmanovi.cz",
    "website": "surmanovi.cz",
    "id": 17758
  },
  {
    "lat": 48.9123273,
    "lng": 16.855974,
    "name": "Vinařství Chrástek",
    "picture": "boreticechrastek720x540.jpg",
    "address": "Bořetice 476",
    "postalCode": "691 08 Bořetice",
    "phoneNumber": "420 720 448 139",
    "url": "http://www.vinochrastek.cz",
    "website": "vinochrastek.cz",
    "id": 97640
  },
  {
    "lat": 48.9155986,
    "lng": 16.8503844,
    "name": "Vinařství Habřina",
    "picture": "boreticehabrina720x540.jpg",
    "address": "Bořetice 161",
    "postalCode": "691 08 Bořetice",
    "phoneNumber": "420 724 110 863",
    "url": "http://www.vino-habrina.cz",
    "website": "vino-habrina.cz",
    "id": 46422
  },
  {
    "lat": 48.8973322,
    "lng": 16.8184691,
    "name": "Vinařství Baloun",
    "picture": "pavlovicebaloun720x540.jpg",
    "address": "Nádražní 1170/4",
    "postalCode": "691 06 Velké Pavlovice",
    "phoneNumber": "420 519 428 236",
    "url": "http://www.baloun.cz",
    "website": "baloun.cz",
    "id": 42574
  },
  {
    "lat": 48.896246,
    "lng": 16.819993,
    "name": "Vinné sklepy Františka Lotrinského",
    "picture": "pavlovicelotrin720x540.jpg",
    "address": "Nádražní 1/1",
    "postalCode": "691 06 Velké Pavlovice",
    "phoneNumber": "420 777 736 401",
    "url": "http://www.lotrinskesklepy.cz",
    "website": "lotrinskesklepy.cz",
    "id": 25119
  },
  {
    "lat": 48.9059907,
    "lng": 16.8195397,
    "name": "Vinařství Mikulica",
    "picture": "pavlovicemikulica720x540.jpg",
    "address": "Hlavní 141/116",
    "postalCode": "691 06 Velké Pavlovice",
    "phoneNumber": "420 721 779 571",
    "url": "http://www.vinarstvimikulica.cz",
    "website": "vinarstvimikulica.cz",
    "id": 61061
  },
  {
    "lat": 48.9058578,
    "lng": 16.8138422,
    "name": "Vinařství Buchtovi",
    "picture": "pavlovicebuchtovi720x540.jpg",
    "address": "Ořechová 218/23",
    "postalCode": "691 06 Velké Pavlovice",
    "phoneNumber": "420 605 242 291",
    "url": "http://www.vinobuchtovi.cz",
    "website": "vinobuchtovi.cz",
    "id": 68300
  },
  {
    "lat": 48.9060272,
    "lng": 16.8126899,
    "name": "Vinařství Michna",
    "picture": "pavlovicemichna720x540.jpg",
    "address": "Ořechová 30",
    "postalCode": "691 06 Velké Pavlovice",
    "phoneNumber": "724 060 138",
    "url": "http://www.michna.cz",
    "website": "michna.cz",
    "id": 89660
  },
  {
    "lat": 48.9058982,
    "lng": 16.8107874,
    "name": "Vinařství Valovi",
    "picture": "pavlovicevala720x540.jpg",
    "address": "Zelnice 69",
    "postalCode": "691 06 Velké Pavlovice",
    "phoneNumber": "420 731 934 141",
    "url": "http://www.vinarstvi-valovi.cz",
    "website": "vinarstvi-valovi.cz",
    "id": 3347
  },
  {
    "lat": 48.907606,
    "lng": 16.81477,
    "name": "Vinařství Lacina",
    "picture": "pavlovicelacina720x540.jpg",
    "address": "V Údolí 154",
    "postalCode": "691 06 Velké Pavlovice",
    "phoneNumber": " 774 066 650",
    "url": "http://www.vinarstvilacina.cz",
    "website": "vinarstvilacina.cz",
    "id": 76721
  },
  {
    "lat": 48.9069199,
    "lng": 16.8164903,
    "name": "Vinařství Fůkalovi",
    "picture": "pavlovicefukalovi720x540.jpg",
    "address": "Tábor 7",
    "postalCode": "691 06 Velké Pavlovice",
    "phoneNumber": "607 102 545",
    "url": "http://www.vinarstvifukalovi.cz",
    "website": "vinarstvifukalovi.cz",
    "id": 16587
  },
  {
    "lat": 48.909579,
    "lng": 16.8158519,
    "name": "Vinařství Michal Kosík ",
    "picture": "pavlovicekosik720x540.jpg",
    "address": "Pod břehy 46 ",
    "postalCode": "691 06 Velké Pavlovice",
    "phoneNumber": "604 431 651",
    "url": "http://www.vinokosik.euweb.cz",
    "website": "vinokosik.euweb.cz",
    "id": 25386
  },
  {
    "lat": 48.907891,
    "lng": 16.8231579,
    "name": "Penzión André",
    "picture": "pavloviceslechtitel720x540.jpg",
    "address": "Pod Břehy 565/54",
    "postalCode": "691 06 Velké Pavlovice",
    "phoneNumber": "420 777 468 894",
    "url": "http://www.slechtitelka.cz",
    "website": "slechtitelka.cz",
    "id": 22085
  },
  {
    "lat": 48.8478503,
    "lng": 16.8982709,
    "name": "Vinařství Kubík",
    "picture": "bilovicekubik720x540.jpg",
    "address": "Ve Dvoře 671",
    "postalCode": "691 02 Velké Bílovice",
    "phoneNumber": "420 608 830 416",
    "url": "http://www.vinarstvikubik.cz",
    "website": "vinarstvikubik.cz",
    "id": 32079
  },
  {
    "lat": 48.858493,
    "lng": 16.898964,
    "name": "Milan Nestarec",
    "picture": "bilovicenestarec720x540.jpg",
    "address": "Pod Předníma 350",
    "postalCode": "691 02 Velké Bílovice",
    "phoneNumber": "775 072 624",
    "url": "http://www.nestarec.cz",
    "website": "nestarec.cz",
    "id": 41015
  },
  {
    "lat": 48.857437,
    "lng": 16.902181,
    "name": "Osička",
    "picture": "biloviceosicka720x540.jpg",
    "address": "Simering 388",
    "postalCode": "691 02 Velké Bílovice",
    "phoneNumber": "420 608 654 609",
    "url": "http://www.vinarstviosicka.cz",
    "website": "vinarstviosicka.cz",
    "id": 23512
  },
  {
    "lat": 48.85824,
    "lng": 16.90392,
    "name": "Rodinné vinařství Spěvák",
    "picture": "bilovicespevak720x540.jpg",
    "address": "U Křástelky 658",
    "postalCode": "691 02 Velké Bílovice",
    "phoneNumber": "608 608 228",
    "url": "http://www.vinarstvi-spevak.cz",
    "website": "vinarstvi-spevak.cz",
    "id": 85260
  },
  {
    "lat": 48.8572247,
    "lng": 16.8993615,
    "name": "Vinařství VINOVIT",
    "picture": "bilovicevinovit720x540.jpg",
    "address": "Pod předníma 330",
    "postalCode": "691 02 Velké Bílovice",
    "phoneNumber": "775 158 129",
    "url": "http://www.vinovit.cz",
    "website": "vinovit.cz",
    "id": 1556
  },
  {
    "lat": 48.857617,
    "lng": 16.899554,
    "name": "Vinařství Zapletal",
    "picture": "bilovicezapletal720x540.jpg",
    "address": "Pod předníma 334",
    "postalCode": "691 02 Velké Bílovice",
    "phoneNumber": "420 602 595 979",
    "url": "http://www.vinarstvizapletal.cz",
    "website": "vinarstvizapletal.cz",
    "id": 72841
  },
  {
    "lat": 48.858014,
    "lng": 16.900932,
    "name": "Vinařství Zbyněk Osička",
    "picture": "biloviceosickaml720x540.jpg",
    "address": "Simering 633",
    "postalCode": "691 02 Velké Bílovice",
    "phoneNumber": "723 107 802",
    "url": "http://www.osicka.com",
    "website": "osicka.com",
    "id": 28765
  },
  {
    "lat": 48.8588947,
    "lng": 16.8983519,
    "name": "Vinařství David Osička",
    "picture": "biloviceosckadavid720x540.jpg",
    "address": "Čejkovská 548",
    "postalCode": "691 02 Velké Bílovice",
    "phoneNumber": "606 179 265",
    "url": "http://www.davidosicka.cz",
    "website": "davidosicka.cz",
    "id": 88981
  },
  {
    "lat": 48.862413,
    "lng": 16.8917098,
    "name": "Vinařství Púrynky",
    "picture": "bilovicepurynky720x540.jpg",
    "address": "Púrynky 562",
    "postalCode": "691 02 Velké Bílovice",
    "phoneNumber": "420 606 665 119",
    "url": "http://www.vinarstvipurynky.cz",
    "website": "vinarstvipurynky.cz",
    "id": 12584
  },
  {
    "lat": 48.86388,
    "lng": 16.89369,
    "name": "Vinný sklípek Na Vyhlídce",
    "picture": "bilovicehromek720x540.jpg",
    "address": "Na Vyhlídce 545",
    "postalCode": "691 02 Velké Bílovice",
    "phoneNumber": "420 732 793 089",
    "url": "http://www.sklipekmorava.cz",
    "website": "sklipekmorava.cz",
    "id": 90827
  },
  {
    "lat": 48.8582164,
    "lng": 16.9074836,
    "name": "Lanžhotský Erik",
    "picture": "bilovicelanzhotsky720x540.jpg",
    "address": "Portugalová 139",
    "postalCode": "691 02 Velké Bílovice",
    "phoneNumber": "420 776 683 567",
    "url": "http://www.vinolanzhotsky.cz",
    "website": "vinolanzhotsky.cz",
    "id": 939
  },
  {
    "lat": 48.8579947,
    "lng": 16.9081831,
    "name": "Vinařství na Špičáku",
    "picture": "biloviceuspicaku720x540.jpg",
    "address": "ke Špičáku 842",
    "postalCode": "691 02 Velké Bílovice",
    "phoneNumber": "420 608 889 056",
    "url": "http://www.vinarstvinaspicaku.cz",
    "website": "vinarstvinaspicaku.cz",
    "id": 30884
  },
  {
    "lat": 48.8588895,
    "lng": 16.9084997,
    "name": "Vinařství Bauman",
    "picture": "bilovicebauman720x540.jpg",
    "address": "Růžová 354",
    "postalCode": "691 02 Velké Bílovice",
    "phoneNumber": "420 775 365 523",
    "url": "http://www.vinarstvibauman.cz",
    "website": "vinarstvibauman.cz",
    "id": 4711
  },
  {
    "lat": 48.856937,
    "lng": 16.9070689,
    "name": "Vinařství Káfuněk",
    "picture": "bilovicekafunek720x540.jpg",
    "address": "Hlavní ev. č. 25",
    "postalCode": "691 02 Velké Bílovice",
    "phoneNumber": "420 602 388 589",
    "url": "http://www.vinarstvikafunek.cz",
    "website": "vinarstvikafunek.cz",
    "id": 8812
  },
  {
    "lat": 48.857751,
    "lng": 16.9069578,
    "name": "ELWINE Velké Bílovice",
    "picture": "biloviceelwine720x540.jpg",
    "address": "Muškátová 125",
    "postalCode": "691 02 Velké Bílovice",
    "phoneNumber": "420 603 720 960",
    "url": "http://www.elwine.cz",
    "website": "elwine.cz",
    "id": 73750
  },
  {
    "lat": 48.8571403,
    "lng": 16.9066242,
    "name": "Rodinné vinařství Otáhalovi",
    "picture": "biloviceotahalovi720x540.jpg",
    "address": "Cabernetová 102",
    "postalCode": "691 02 Velké Bílovice",
    "phoneNumber": "420 739 234 530",
    "url": "http://www.vinootahalovi.cz",
    "website": "vinootahalovi.cz",
    "id": 62382
  },
  {
    "lat": 48.8565678,
    "lng": 16.9059035,
    "name": "Vinařství Velké Bílovice",
    "picture": "bilovicevelke720x540.jpg",
    "address": "Čejkovská 772",
    "postalCode": "691 02 Velké Bílovice",
    "phoneNumber": "420 606 686 404",
    "url": "http://www.vinarstvivelkebilovice.cz",
    "website": "vinarstvivelkebilovice.cz",
    "id": 26522
  },
  {
    "lat": 48.8562849,
    "lng": 16.9088983,
    "name": "Rodinné vinařství Bílkovi",
    "picture": "bilovicebilkovi720x540.jpg",
    "address": "Sadová 663",
    "postalCode": "691 02 Velké Bílovice",
    "phoneNumber": "420 608 347 222",
    "url": "http://www.vinarstvibilkovi.cz",
    "website": "vinarstvibilkovi.cz",
    "id": 23197
  },
  {
    "lat": 48.856009,
    "lng": 16.908201,
    "name": "Vinařství Stanislav Mádl",
    "picture": "bilovicemadl720x540.jpg",
    "address": "sklepní ulice Sadová",
    "postalCode": "691 02 Velké Bílovice",
    "phoneNumber": "420 725 950 970",
    "url": "http://www.vasvinar.cz",
    "website": "vasvinar.cz",
    "id": 1571
  },
  {
    "lat": 48.855574,
    "lng": 16.90916,
    "name": "Vinařství Petr Skoupil",
    "picture": "biloviceskoupil720x540.jpg",
    "address": "Sadová 1399",
    "postalCode": "691 02 Velké Bílovice",
    "phoneNumber": "420 732 963 669",
    "url": "http://www.skoupil.com",
    "website": "skoupil.com",
    "id": 23620
  },
  {
    "lat": 48.8558062,
    "lng": 16.9084967,
    "name": "Vinný sklep u Osičků",
    "picture": "biloviceuosicku720x540.jpg",
    "address": "Sadová 605",
    "postalCode": "691 02 Velké Bílovice",
    "phoneNumber": "608 770 712",
    "url": "http://www.sklepuosicku.cz",
    "website": "sklepuosicku.cz",
    "id": 11371
  },
  {
    "lat": 48.8605186,
    "lng": 16.8971652,
    "name": "Vinařství Zdenek Polach",
    "picture": "bilovicepolach720x540.jpg",
    "address": "Pod Předníma 380",
    "postalCode": "691 02 Velké Bílovice",
    "phoneNumber": "606 765 130",
    "url": "http://www.vinopolach.cz",
    "website": "vinopolach.cz",
    "id": 88653
  },
  {
    "lat": 48.8523163,
    "lng": 16.8823016,
    "name": "Vinařství Hrdina & dcera",
    "picture": "bilovicehrdina720x540.jpg",
    "address": "Záhumní 1375",
    "postalCode": "691 02 Velké Bílovice",
    "phoneNumber": "420 731 820 888",
    "url": "http://www.hrdinaadcera.cz",
    "website": "hrdinaadcera.cz",
    "id": 85742
  },
  {
    "lat": 48.8420934,
    "lng": 16.9026357,
    "name": "Vinařství Sing Wine",
    "picture": "bilovicesingwine720x540.jpg",
    "address": "Žižkovská 1365",
    "postalCode": "691 02 Velké Bílovice",
    "phoneNumber": "775 595 561",
    "url": "http://www.singwine.cz",
    "website": "singwine.cz",
    "id": 11838
  },
  {
    "lat": 48.8548889,
    "lng": 16.8836944,
    "name": "Rodinné vinařství Sedlák",
    "picture": "bilovicesedlak720x540.jpg",
    "address": "Fabián 1494",
    "postalCode": "691 02 Velké Bílovice",
    "phoneNumber": "420 774 944 214",
    "url": "http://www.vinarstvisedlak.cz",
    "website": "vinarstvisedlak.cz",
    "id": 54320
  },
  {
    "lat": 48.8018398,
    "lng": 16.802103,
    "name": "Vinařství Chateau Lednice",
    "picture": "lednicechateao720x540.jpg",
    "address": "21. dubna",
    "postalCode": "691 44 Lednice",
    "phoneNumber": "736 430 575",
    "url": "http://www.chateau-lednice.cz",
    "website": "chateau-lednice.cz",
    "id": 37678
  },
  {
    "lat": 48.8004922,
    "lng": 16.8038959,
    "name": "Moravský sommelier",
    "picture": "lednicesommelier720x540.jpg",
    "address": "Zámecké náměstí 69",
    "postalCode": "691 44 Lednice",
    "phoneNumber": "420 602 153 300",
    "url": "http://www.moravskysommelier.cz/vinoteky/#lednice",
    "website": "moravskysommelier.cz",
    "id": 60871
  },
  {
    "lat": 48.7999292,
    "lng": 16.7907412,
    "name": "Galerie vín ONYX Lednice",
    "picture": "lednicegalerie720x540.jpg",
    "address": "Nejdecká 176",
    "postalCode": "691 44 Lednice",
    "phoneNumber": "608 600 553",
    "url": "http://www.onyxlednice.cz",
    "website": "onyxlednice.cz",
    "id": 28164
  },
  {
    "lat": 48.8732608,
    "lng": 16.7563736,
    "name": "Vinařství Vajbar",
    "picture": "zajecivajbar720x540.jpg",
    "address": "U Vily 480",
    "postalCode": "691 05 Zaječí",
    "phoneNumber": "721 657 475",
    "url": "http://www.vinarstvivajbar.cz",
    "website": "vinarstvivajbar.cz",
    "id": 35488
  },
  {
    "lat": 48.8729242,
    "lng": 16.7610194,
    "name": "Vinařství Nosreti",
    "picture": "zajecinosreti720x540.jpg",
    "address": "Vinařská 479",
    "postalCode": "691 05 Zaječí",
    "phoneNumber": "420 725 936 624",
    "url": "http://www.vinarstvinosreti.cz",
    "website": "vinarstvinosreti.cz",
    "id": 80714
  },
  {
    "lat": 48.8599964,
    "lng": 16.7614246,
    "name": "Vinařství Šabata",
    "picture": "zajecisabata720x540.jpg",
    "address": "Zaječí 506",
    "postalCode": "691 05 Zaječí",
    "phoneNumber": "420 724 105 148",
    "url": "http://www.vinarstvisabata.cz",
    "website": "vinarstvisabata.cz",
    "id": 36529
  },
  {
    "lat": 48.871289,
    "lng": 16.766833,
    "name": "Vinařství Herůfek",
    "picture": "zajeciherufek720x540.jpg",
    "address": "Dolní",
    "postalCode": "691 05 Zaječí",
    "phoneNumber": "420 602 73 10 90",
    "url": "http://www.vinarstviherufek.cz",
    "website": "vinarstviherufek.cz",
    "id": 94671
  },
  {
    "lat": 48.870303,
    "lng": 16.751489,
    "name": "Vinařství U Kapličky",
    "picture": "zajeciukaplicky740x540.jpg",
    "address": "Vinařská 484",
    "postalCode": "691 05 Zaječí",
    "phoneNumber": "420 606 766 147",
    "url": "http://www.vinarstviukaplicky.cz",
    "website": "vinarstviukaplicky.cz",
    "id": 77373
  },
  {
    "lat": 48.8710337,
    "lng": 16.7645633,
    "name": "Pura Vida",
    "picture": "zajecipuravida720x540.jpg",
    "address": "Hlavní 501",
    "postalCode": "691 05 Zaječí",
    "phoneNumber": "420 728 186 103",
    "url": "http://www.penzionzajeci.cz",
    "website": "penzionzajeci.cz",
    "id": 12753
  },
  {
    "lat": 48.8711415,
    "lng": 16.7658322,
    "name": "Vinný sklep U Krčků",
    "picture": "zajeciukrcku720x540.jpg",
    "address": "Dolní 192",
    "postalCode": "691 05 Zaječí",
    "phoneNumber": "420 770 122 010",
    "url": "http://www.ubytovaniukrcku.cz",
    "website": "ubytovaniukrcku.cz",
    "id": 67916
  },
  {
    "lat": 48.8726857,
    "lng": 16.7705519,
    "name": "Hycl Josef Ing.",
    "picture": "zajecihycl720x540.jpg",
    "address": "Školní 141",
    "postalCode": "691 05 Zaječí",
    "phoneNumber": "420 606 829 465",
    "url": "http://www.vinarnazdena.eu",
    "website": "vinarnazdena.eu",
    "id": 70272
  },
  {
    "lat": 48.7984768,
    "lng": 16.8004561,
    "name": "Vinný sklep U Čapků",
    "picture": "ledniceucapku720x540.jpg",
    "address": "ulice Cihlářská",
    "postalCode": "691 44 Lednice",
    "phoneNumber": "420 724 516 900",
    "url": "http://www.ucapku.cz",
    "website": "ucapku.cz",
    "id": 9065
  },
  {
    "lat": 49.0708289,
    "lng": 17.4810167,
    "name": "Vinný Sklep U Lisu",
    "picture": "ulisu720x540.jpg",
    "address": "Vinohradská 247",
    "postalCode": "686 05 Uherské Hradiště",
    "phoneNumber": "607 554 013",
    "url": "http://www.ulisu.uh.cz",
    "website": "ulisu.uh.cz",
    "id": 90687
  }
]
